version_major,version_minor,status,timestamp,latitude,longitude,altitude,roll,pitch,heading,latitude_sigma,longitude_sigma,altitude_sigma,roll_sigma,pitch_sigma,heading_sigma,a_sigma,b_sigma,c_sigma,quality,number_of_satellites,hdop,vdop,hpl,vpl
4,2,1,11807282,48.766335996578,2.4647826884151,0,0,0,192.98442077637,0.059536963701248,0.058367792516947,0,0,0,0.45439681410789,0,0,0,6,8,0,0,0,0
4,2,1,11857502,48.766335538488,2.4647828133379,0,0,0,193.30241394043,0.054808836430311,0.054864160716534,0,0,0,0.48949149250984,0,0,0,6,8,0,0,0,0
4,2,1,11912655,48.766335050706,2.4647828932405,0,0,0,193.61581420898,0.05423378944397,0.056214656680822,0,0,0,0.47762411832809,0,0,0,6,8,0,0,0,0
4,2,1,11952815,48.766334591104,2.464783057236,0,0,0,193.87088012695,0.17908720672131,0.17905409634113,0,0,0,0.63465738296509,0,0,0,6,8,0,0,0,0
4,2,1,12007531,48.76633402596,2.4647831735094,0,0,0,194.26943969727,0.10711020976305,0.09697425365448,0,0,0,0.50163853168488,0,0,0,6,8,0,0,0,0
4,2,1,12052772,48.766333586665,2.4647832973616,0,0,0,194.63041687012,0.06174748763442,0.062780968844891,0,0,0,0.49987906217575,0,0,0,6,8,0,0,0,0
4,2,1,12107858,48.766332941587,2.464783519315,0,0,0,195.15942382812,0.06059492379427,0.063622310757637,0,0,0,0.5543720126152,0,0,0,6,8,0,0,0,0
4,2,1,12161943,48.766332367543,2.4647836778558,0,0,0,195.55488586426,0.13082566857338,0.12212079763412,0,0,0,0.53476339578629,0,0,0,6,8,0,0,0,0
4,2,1,12212362,48.766331848828,2.4647838635842,0,0,0,196.04733276367,0.072692602872849,0.074729830026627,0,0,0,0.52421408891678,0,0,0,6,8,0,0,0,0
4,2,1,12252809,48.766331372399,2.4647840471245,0,0,0,196.44313049316,0.066351667046547,0.069327220320702,0,0,0,0.53210097551346,0,0,0,6,8,0,0,0,0
4,2,1,12312107,48.76633066573,2.4647843355599,0,0,0,197.07472229004,0.13457480072975,0.14334098994732,0,0,0,0.57362520694733,0,0,0,6,8,0,0,0,0
4,2,1,12362452,48.766330084014,2.464784532084,0,0,0,197.63404846191,0.080727890133858,0.089041672646999,0,0,0,0.5291268825531,0,0,0,6,8,0,0,0,0
4,2,1,12403132,48.766329662294,2.4647847231161,0,0,0,198.07823181152,0.072844080626965,0.072988860309124,0,0,0,0.53018718957901,0,0,0,6,8,0,0,0,0
4,2,1,12457579,48.766328915545,2.4647850834128,0,0,0,198.73553466797,0.12241496890783,0.12026393413544,0,0,0,0.63579970598221,0,0,0,6,8,0,0,0,0
4,2,1,12512092,48.766328159896,2.4647854332864,0,0,0,199.32743835449,0.14912417531013,0.13779114186764,0,0,0,0.59236258268356,0,0,0,6,8,0,0,0,0
4,2,1,12561867,48.766327638138,2.4647857452491,0,0,0,199.91380310059,0.070647247135639,0.071346826851368,0,0,0,0.55331319570541,0,0,0,6,8,0,0,0,0
4,2,1,12611955,48.766326921033,2.4647861063801,0,0,0,200.55686950684,0.068290144205093,0.069207280874252,0,0,0,0.56513345241547,0,0,0,6,8,0,0,0,0
4,2,1,12662495,48.76632623798,2.4647865863149,0,0,0,201.13833618164,0.18678277730942,0.18855550885201,0,0,0,0.7403364777565,0,0,0,6,8,0,0,0,0
4,2,1,12707430,48.766325649068,2.4647869504879,0,0,0,201.67819213867,0.099433273077011,0.11892341822386,0,0,0,0.57840949296951,0,0,0,6,8,0,0,0,0
4,2,1,12757480,48.766324900446,2.4647873794727,0,0,0,202.33651733398,0.079537957906723,0.086290679872036,0,0,0,0.59715580940247,0,0,0,6,8,0,0,0,0
4,2,1,12806837,48.766324211994,2.4647877571925,0,0,0,203.09602355957,0.07209287583828,0.073504336178303,0,0,0,0.60797876119614,0,0,0,6,8,0,0,0,0
4,2,1,12862463,48.766323388625,2.4647882641745,0,0,0,203.87814331055,0.15626376867294,0.1552671790123,0,0,0,0.76673501729965,0,0,0,6,8,0,0,0,0
4,2,1,12912591,48.766322603446,2.4647887586274,0,0,0,204.57649230957,0.096492074429989,0.10191071778536,0,0,0,0.64593678712845,0,0,0,6,8,0,0,0,0
4,2,1,12962237,48.766321843193,2.4647892731714,0,0,0,205.35221862793,0.070720940828323,0.075901128351688,0,0,0,0.61651605367661,0,0,0,6,8,0,0,0,0
4,2,1,13011956,48.766321079217,2.4647897326076,0,0,0,206.11212158203,0.069240793585777,0.075735561549664,0,0,0,0.58269625902176,0,0,0,6,8,0,0,0,0
4,2,1,13057403,48.766320359128,2.4647902285068,0,0,0,206.63935852051,0.19004520773888,0.19216361641884,0,0,0,1.1343812942505,0,0,0,6,8,0,0,0,0
4,2,1,13114130,48.76631955646,2.4647908529269,0,0,0,207.49632263184,0.094450064003468,0.098825186491013,0,0,0,0.65135848522186,0,0,0,6,8,0,0,0,0
4,2,1,13157271,48.76631889563,2.4647913414548,0,0,0,208.2147064209,0.071967802941799,0.07715430110693,0,0,0,0.63858586549759,0,0,0,6,8,0,0,0,0
4,2,1,13203333,48.766318102891,2.464791938227,0,0,0,208.95562744141,0.069151684641838,0.075539059937,0,0,0,0.6388738155365,0,0,0,6,8,0,0,0,0
4,2,1,13252372,48.766317381584,2.4647925015497,0,0,0,209.74304199219,0.12131880968809,0.12434911727905,0,0,0,0.81196635961533,0,0,0,6,8,0,0,0,0
4,2,1,13306907,48.766316497983,2.4647932001842,0,0,0,210.4296875,0.17969408631325,0.15249539911747,0,0,0,0.70510828495026,0,0,0,6,8,0,0,0,0
4,2,1,13361804,48.766315700141,2.4647938825052,0,0,0,211.25885009766,0.089347459375858,0.080834940075874,0,0,0,0.62863498926163,0,0,0,6,8,0,0,0,0
4,2,1,13412800,48.766314969126,2.4647945290336,0,0,0,212.02191162109,0.073624804615974,0.072529405355453,0,0,0,0.58204209804535,0,0,0,6,8,0,0,0,0
4,2,1,13462539,48.766314175887,2.4647952797664,0,0,0,212.77542114258,0.2041841596365,0.17924094200134,0,0,0,0.66345357894897,0,0,0,6,8,0,0,0,0
4,2,1,13513756,48.766313406702,2.4647959350827,0,0,0,213.44743347168,0.089013978838921,0.080804198980331,0,0,0,0.63581132888794,0,0,0,6,8,0,0,0,0
4,2,1,13557218,48.766312771646,2.4647965304841,0,0,0,214.10800170898,0.075869560241699,0.074892200529575,0,0,0,0.62059050798416,0,0,0,6,8,0,0,0,0
4,2,1,13608454,48.766311980666,2.4647973191644,0,0,0,214.78622436523,0.074179038405418,0.07368104159832,0,0,0,0.6467353105545,0,0,0,6,8,0,0,0,0
4,2,1,13652575,48.766311328203,2.4647979643803,0,0,0,215.20761108398,0.1246455386281,0.12408066540956,0,0,0,0.71614116430283,0,0,0,6,8,0,0,0,0
4,2,1,13712350,48.766310344608,2.4647989252883,0,0,0,215.94554138184,0.1128243803978,0.10821226984262,0,0,0,0.61491549015045,0,0,0,6,8,0,0,0,0
4,2,1,13752022,48.766309796102,2.4647994264195,0,0,0,216.31561279297,0.075560934841633,0.074946574866772,0,0,0,0.56599318981171,0,0,0,6,8,0,0,0,0
4,2,1,13806719,48.766308897836,2.46480039653,0,0,0,216.80160522461,0.1246612817049,0.12551982700825,0,0,0,0.64428120851517,0,0,0,6,8,0,0,0,0
4,2,1,13863556,48.766307977119,2.4648014094927,0,0,0,217.30386352539,0.11567122489214,0.13908666372299,0,0,0,0.55027139186859,0,0,0,6,8,0,0,0,0
4,2,1,13907377,48.766307274776,2.4648020684073,0,0,0,217.70106506348,0.075490355491638,0.07548101246357,0,0,0,0.53544455766678,0,0,0,6,8,0,0,0,0
4,2,1,13963195,48.766306338089,2.4648031268567,0,0,0,218.11080932617,0.074094824492931,0.074043810367584,0,0,0,0.54568547010422,0,0,0,6,8,0,0,0,0
4,2,1,14003401,48.766305588686,2.4648039060515,0,0,0,218.45779418945,0.15907204151154,0.15841461718082,0,0,0,0.66018784046173,0,0,0,6,8,0,0,0,0
4,2,1,14052461,48.766304721965,2.4648048331653,0,0,0,218.76148986816,0.10438302159309,0.083819821476936,0,0,0,0.55000579357147,0,0,0,6,8,0,0,0,0
4,2,1,14113163,48.766303746381,2.4648060851762,0,0,0,219.16227722168,0.095637984573841,0.078954957425594,0,0,0,0.60193878412247,0,0,0,6,8,0,0,0,0
4,2,1,14151676,48.766303106151,2.4648069060716,0,0,0,219.39566040039,0.073683142662048,0.068967588245869,0,0,0,0.55439835786819,0,0,0,6,8,0,0,0,0
4,2,1,14202795,48.766302160465,2.4648079915785,0,0,0,219.5089263916,0.18383550643921,0.16991803050041,0,0,0,0.58053129911423,0,0,0,6,8,0,0,0,0
4,2,1,14262979,48.766301057151,2.4648092384832,0,0,0,219.62536621094,0.11381139606237,0.09532918035984,0,0,0,0.6027854681015,0,0,0,6,8,0,0,0,0
4,2,1,14308170,48.766300153235,2.4648103007853,0,0,0,219.6427154541,0.16157488524914,0.15461429953575,0,0,0,0.64267510175705,0,0,0,6,8,0,0,0,0
4,2,1,14357067,48.766299244298,2.4648114191247,0,0,0,219.71992492676,0.20019997656345,0.1678778231144,0,0,0,0.58967292308807,0,0,0,6,8,0,0,0,0
4,2,1,14407259,48.766298367073,2.4648125496642,0,0,0,219.81170654297,0.084521397948265,0.075823582708836,0,0,0,0.54572653770447,0,0,0,6,8,0,0,0,0
4,2,1,14457182,48.766297378563,2.4648136501257,0,0,0,219.91114807129,0.069693721830845,0.068429209291935,0,0,0,0.51201772689819,0,0,0,6,8,0,0,0,0
4,2,1,14511971,48.766296203962,2.4648150595671,0,0,0,219.92726135254,0.2155274450779,0.21452549099922,0,0,0,0.93262207508087,0,0,0,6,8,0,0,0,0
4,2,1,14561534,48.766295282137,2.4648160841763,0,0,0,219.96286010742,0.12798067927361,0.08632355928421,0,0,0,0.49900874495506,0,0,0,6,8,0,0,0,0
4,2,1,14613373,48.766294220172,2.4648173706485,0,0,0,219.88192749023,0.076212242245674,0.06896960735321,0,0,0,0.4943530857563,0,0,0,6,8,0,0,0,0
4,2,1,14652993,48.766293404363,2.4648183874932,0,0,0,219.84721374512,0.0689652338624,0.068751506507397,0,0,0,0.51553815603256,0,0,0,6,8,0,0,0,0
4,2,1,14707357,48.766292254809,2.4648197642661,0,0,0,219.80062866211,0.14196322858334,0.14907546341419,0,0,0,0.54733753204346,0,0,0,6,8,0,0,0,0
4,2,1,14757798,48.766291218009,2.4648209690711,0,0,0,219.65269470215,0.12220089882612,0.13387556374073,0,0,0,0.54998809099197,0,0,0,6,8,0,0,0,0
4,2,1,14801982,48.766290344604,2.4648220643044,0,0,0,219.4847869873,0.071044743061066,0.068984128534794,0,0,0,0.5467346906662,0,0,0,6,8,0,0,0,0
4,2,1,14862604,48.76628897642,2.4648237574495,0,0,0,219.16937255859,0.12307627499104,0.12203174829483,0,0,0,0.98338252305984,0,0,0,6,8,0,0,0,0
4,2,1,14911989,48.766287986989,2.4648250740751,0,0,0,218.85163879395,0.14170463383198,0.15217509865761,0,0,0,0.54625815153122,0,0,0,6,8,0,0,0,0
4,2,1,14951524,48.766287088314,2.4648260240365,0,0,0,218.54837036133,0.09178701043129,0.086556233465672,0,0,0,0.54222303628922,0,0,0,6,8,0,0,0,0
4,2,1,15003647,48.766285839233,2.4648273889712,0,0,0,218.09317016602,0.072139717638493,0.067900620400906,0,0,0,0.51280695199966,0,0,0,6,8,0,0,0,0
4,2,1,15058062,48.766284620482,2.4648287872588,0,0,0,217.60556030273,0.073054745793343,0.068221919238567,0,0,0,0.53924292325974,0,0,0,6,8,0,0,0,0
4,2,1,15113586,48.766283363924,2.4648301828668,0,0,0,217.10472106934,0.12452437728643,0.12347664684057,0,0,0,0.97956043481827,0,0,0,6,8,0,0,0,0
4,2,1,15162248,48.766282186815,2.464831464796,0,0,0,216.57206726074,0.13470910489559,0.1310012191534,0,0,0,0.48486337065697,0,0,0,6,8,0,0,0,0
4,2,1,15201882,48.766281328611,2.4648324611458,0,0,0,216.23919677734,0.11810200661421,0.10593283176422,0,0,0,0.52503299713135,0,0,0,6,8,0,0,0,0
4,2,1,15262176,48.766280024767,2.4648339621909,0,0,0,215.53668212891,0.071803420782089,0.071856059134007,0,0,0,0.50920253992081,0,0,0,6,8,0,0,0,0
4,2,1,15307305,48.766279018272,2.4648350798153,0,0,0,215.00225830078,0.069042339920998,0.070914015173912,0,0,0,0.50482267141342,0,0,0,6,8,0,0,0,0
4,2,1,15357601,48.766277766757,2.4648363938778,0,0,0,214.2776184082,0.1239285543561,0.12566857039928,0,0,0,0.94256520271301,0,0,0,6,8,0,0,0,0
4,2,1,15407359,48.766276647746,2.4648374858471,0,0,0,213.56797790527,0.13201530277729,0.10355959832668,0,0,0,0.45326614379883,0,0,0,6,8,0,0,0,0
4,2,1,15457275,48.766275479604,2.4648387245658,0,0,0,212.83520507812,0.091467283666134,0.077359303832054,0,0,0,0.46620947122574,0,0,0,6,8,0,0,0,0
4,2,1,15512995,48.766274094749,2.4648401230287,0,0,0,211.94537353516,0.070982947945595,0.068187154829502,0,0,0,0.47637823224068,0,0,0,6,8,0,0,0,0
4,2,1,15552335,48.766273192474,2.4648409719398,0,0,0,211.40121459961,0.072166569530964,0.068238236010075,0,0,0,0.51755273342133,0,0,0,6,8,0,0,0,0
4,2,1,15613198,48.766271597168,2.464842322589,0,0,0,210.41105651855,0.16243699193001,0.16149187088013,0,0,0,0.8401865363121,0,0,0,6,8,0,0,0,0
4,2,1,15662015,48.76627041064,2.4648433129411,0,0,0,209.58502197266,0.12992486357689,0.10794314742088,0,0,0,0.53700911998749,0,0,0,6,8,0,0,0,0
4,2,1,15712847,48.766269259097,2.4648442943793,0,0,0,208.86444091797,0.074482299387455,0.071353733539581,0,0,0,0.51397031545639,0,0,0,6,8,0,0,0,0
4,2,1,15757852,48.766268001021,2.4648453297127,0,0,0,208.02587890625,0.071686200797558,0.070220701396465,0,0,0,0.48957258462906,0,0,0,6,8,0,0,0,0
4,2,1,15812749,48.766266704284,2.4648463556073,0,0,0,207.21841430664,0.07137293368578,0.071462720632553,0,0,0,0.4799881875515,0,0,0,6,8,0,0,0,0
4,2,1,15852753,48.766265669908,2.464847132673,0,0,0,206.48585510254,0.12454205751419,0.12314803153276,0,0,0,0.60639220476151,0,0,0,6,8,0,0,0,0
4,2,1,15897368,48.766264479904,2.4648479570991,0,0,0,205.82145690918,0.14926971495152,0.13985256850719,0,0,0,0.54599797725677,0,0,0,6,8,0,0,0,0
4,2,1,15957007,48.76626294808,2.4648491011497,0,0,0,204.87097167969,0.076905481517315,0.072357028722763,0,0,0,0.53912788629532,0,0,0,6,8,0,0,0,0
4,2,1,16012626,48.766261376442,2.4648502604132,0,0,0,203.89680480957,0.072797760367393,0.071302533149719,0,0,0,0.5562282204628,0,0,0,6,8,0,0,0,0
4,2,1,16062313,48.766260121126,2.4648511106362,0,0,0,202.94911193848,0.17427459359169,0.17509065568447,0,0,0,0.61808252334595,0,0,0,6,8,0,0,0,0
4,2,1,16112194,48.766258788653,2.4648520332485,0,0,0,202.20455932617,0.091249838471413,0.074077196419239,0,0,0,0.51694411039352,0,0,0,6,8,0,0,0,0
4,2,1,16163718,48.766257124439,2.4648530818578,0,0,0,201.29547119141,0.081612043082714,0.069473922252655,0,0,0,0.54293435811996,0,0,0,6,8,0,0,0,0
4,2,1,16212790,48.766255436817,2.4648540653006,0,0,0,200.4753112793,0.075201019644737,0.067806571722031,0,0,0,0.54663318395615,0,0,0,6,8,0,0,0,0
4,2,1,16261974,48.766253855826,2.4648549829721,0,0,0,199.77569580078,0.075629003345966,0.068129979074001,0,0,0,0.52529340982437,0,0,0,6,8,0,0,0,0
4,2,1,16312319,48.766252190901,2.4648558684108,0,0,0,199.11605834961,0.13376398384571,0.10061920434237,0,0,0,0.53837782144547,0,0,0,6,8,0,0,0,0
4,2,1,16351838,48.766250806639,2.4648566007704,0,0,0,198.47871398926,0.083348631858826,0.069698423147202,0,0,0,0.50922566652298,0,0,0,6,8,0,0,0,0
4,2,1,16407755,48.766248786699,2.4648575915883,0,0,0,197.65550231934,0.075423240661621,0.068572133779526,0,0,0,0.53188520669937,0,0,0,6,8,0,0,0,0
4,2,1,16461476,48.766246915967,2.4648584097089,0,0,0,196.90850830078,0.074553765356541,0.068454302847385,0,0,0,0.53511315584183,0,0,0,6,8,0,0,0,0
4,2,1,16507387,48.766245109469,2.4648592168296,0,0,0,196.2237701416,0.14583294093609,0.1406361758709,0,0,0,0.56281691789627,0,0,0,6,8,0,0,0,0
4,2,1,16552376,48.766243525724,2.4648598815477,0,0,0,195.69744873047,0.11058903485537,0.092319644987583,0,0,0,0.55885499715805,0,0,0,6,8,0,0,0,0
4,2,1,16612390,48.766241410581,2.4648607652707,0,0,0,194.9100189209,0.079049296677113,0.0684519931674,0,0,0,0.54502874612808,0,0,0,6,8,0,0,0,0
4,2,1,16656905,48.766239754318,2.46486141549,0,0,0,194.36553955078,0.17006799578667,0.16622568666935,0,0,0,23.798765182495,0,0,0,6,8,0,0,0,0
4,2,1,16711835,48.766239515951,2.4648614743361,0,0,0,194.3646697998,0.13856123387814,0.12981839478016,0,0,0,16.771741867065,0,0,0,6,8,0,0,0,0
4,2,1,16756831,48.766236017166,2.4648627576376,0,0,0,192.9684753418,0.092893831431866,0.068995535373688,0,0,0,0.5682178735733,0,0,0,6,8,0,0,0,0
4,2,1,16807211,48.766233961328,2.4648634516812,0,0,0,192.43232727051,0.081415630877018,0.064085252583027,0,0,0,0.57359182834625,0,0,0,6,8,0,0,0,0
4,2,1,16866450,48.766231554618,2.464864232215,0,0,0,191.72248840332,0.19186280667782,0.18449129164219,0,0,0,0.70504713058472,0,0,0,6,8,0,0,0,0
4,2,1,16908124,48.766230007735,2.4648647361532,0,0,0,191.31623840332,0.10717343539,0.10426653176546,0,0,0,0.54629045724869,0,0,0,6,8,0,0,0,0
4,2,1,16963454,48.766227832704,2.464865390487,0,0,0,190.8041229248,0.079444162547588,0.065691702067852,0,0,0,0.52567231655121,0,0,0,6,8,0,0,0,0
4,2,1,17007504,48.766226039122,2.4648658749763,0,0,0,190.33847045898,0.080726936459541,0.063146747648716,0,0,0,0.54359292984009,0,0,0,6,8,0,0,0,0
4,2,1,17057545,48.766223922922,2.4648664601572,0,0,0,189.8106842041,0.1314243376255,0.14470045268536,0,0,0,0.58959341049194,0,0,0,6,8,0,0,0,0
4,2,1,17106919,48.766221913057,2.464867044084,0,0,0,189.34982299805,0.0866973772645,0.074254028499126,0,0,0,0.54255145788193,0,0,0,6,8,0,0,0,0
4,2,1,17161760,48.766219678746,2.4648676067296,0,0,0,188.75749206543,0.13183686137199,0.1220872849226,0,0,0,0.95259588956833,0,0,0,6,8,0,0,0,0
4,2,1,17212644,48.766217505449,2.4648681012437,0,0,0,188.35601806641,0.16201536357403,0.17702084779739,0,0,0,0.53653872013092,0,0,0,6,8,0,0,0,0
4,2,1,17253142,48.766215837208,2.4648685039733,0,0,0,187.95782470703,0.097629696130753,0.10135895758867,0,0,0,0.5333463549614,0,0,0,6,8,0,0,0,0
4,2,1,17303061,48.76621370132,2.464869011758,0,0,0,187.46730041504,0.078947432339191,0.065060801804066,0,0,0,0.50090646743774,0,0,0,6,8,0,0,0,0
4,2,1,17357111,48.766211496708,2.4648694965781,0,0,0,187.00442504883,0.13047759234905,0.12162733823061,0,0,0,0.62544387578964,0,0,0,6,8,0,0,0,0
4,2,1,17407309,48.766209304009,2.4648699505707,0,0,0,186.55908203125,0.18622685968876,0.15675874054432,0,0,0,0.54680126905441,0,0,0,6,8,0,0,0,0
4,2,1,17457339,48.7662071978,2.4648703952911,0,0,0,186.1314239502,0.096045225858688,0.068771034479141,0,0,0,0.51051759719849,0,0,0,6,8,0,0,0,0
4,2,1,17512136,48.766204730454,2.4648708235713,0,0,0,185.62844848633,0.081831216812134,0.05984728038311,0,0,0,0.50030660629272,0,0,0,6,8,0,0,0,0
4,2,1,17558551,48.76620274607,2.4648711734273,0,0,0,185.32029724121,0.19994653761387,0.17996662855148,0,0,0,0.57263350486755,0,0,0,6,8,0,0,0,0
4,2,1,17612758,48.766200530473,2.4648715502358,0,0,0,185.03099060059,0.1174456551671,0.074889674782753,0,0,0,0.51479494571686,0,0,0,6,8,0,0,0,0
4,2,1,17662247,48.766198343578,2.4648718472723,0,0,0,184.74537658691,0.089345201849937,0.060162249952555,0,0,0,0.50507605075836,0,0,0,6,8,0,0,0,0
4,2,1,17708196,48.766196301203,2.4648720892887,0,0,0,184.46243286133,0.084504388272762,0.059094317257404,0,0,0,0.50288873910904,0,0,0,6,8,0,0,0,0
4,2,1,17753380,48.76619442724,2.4648722962735,0,0,0,184.23179626465,0.17949739098549,0.15835113823414,0,0,0,0.50511652231216,0,0,0,6,8,0,0,0,0
4,2,1,17812123,48.766191977507,2.464872557409,0,0,0,183.8824005127,0.11067609488964,0.085348233580589,0,0,0,0.51638901233673,0,0,0,6,8,0,0,0,0
4,2,1,17851777,48.766190173334,2.4648727574293,0,0,0,183.63858032227,0.0808220282197,0.063436470925808,0,0,0,0.46508967876434,0,0,0,6,8,0,0,0,0
4,2,1,17902355,48.766187924158,2.4648729736751,0,0,0,183.29165649414,0.081899873912334,0.064522624015808,0,0,0,0.49297860264778,0,0,0,6,8,0,0,0,0
4,2,1,17962824,48.766185447972,2.4648732366135,0,0,0,182.96084594727,0.19001170992851,0.15004324913025,0,0,0,0.5752882361412,0,0,0,6,8,0,0,0,0
4,2,1,18013068,48.766183187769,2.464873402081,0,0,0,182.63327026367,0.11418337374926,0.093578942120075,0,0,0,0.54212093353271,0,0,0,6,8,0,0,0,0
4,2,1,18062761,48.766180921086,2.4648735913691,0,0,0,182.31869506836,0.084977179765701,0.06608223170042,0,0,0,0.50041162967682,0,0,0,6,8,0,0,0,0
4,2,1,18097248,48.766179455024,2.4648736893106,0,0,0,182.12455749512,0.085413932800293,0.065911576151848,0,0,0,0.51000356674194,0,0,0,6,8,0,0,0,0
4,2,1,18158580,48.766176885508,2.464873844016,0,0,0,181.78793334961,0.20305413007736,0.15227137506008,0,0,0,0.53358602523804,0,0,0,6,8,0,0,0,0
4,2,1,18207387,48.766174423305,2.4648740036987,0,0,0,181.48049926758,0.12947045266628,0.077714502811432,0,0,0,0.51302975416183,0,0,0,6,8,0,0,0,0
4,2,1,18258434,48.766171780489,2.4648741290094,0,0,0,181.20736694336,0.09399326890707,0.064710028469563,0,0,0,0.52020370960236,0,0,0,6,8,0,0,0,0
4,2,1,18313155,48.766169012951,2.4648742819265,0,0,0,180.87724304199,0.19678737223148,0.18617323040962,0,0,0,0.65283584594727,0,0,0,6,8,0,0,0,0
4,2,1,18358814,48.766166484824,2.4648743157842,0,0,0,180.55598449707,0.12260767072439,0.087673529982567,0,0,0,0.56150203943253,0,0,0,6,8,0,0,0,0
4,2,1,18407747,48.766164087633,2.4648743170964,0,0,0,180.25312805176,0.10702220350504,0.06916332244873,0,0,0,0.56189799308777,0,0,0,6,8,0,0,0,0
4,2,1,18457812,48.766161363055,2.4648743158938,0,0,0,179.84780883789,0.10361796617508,0.06179716065526,0,0,0,0.54998737573624,0,0,0,6,8,0,0,0,0
4,2,1,18512665,48.766158539257,2.4648743082665,0,0,0,179.48529052734,0.17493385076523,0.17017608880997,0,0,0,0.54950600862503,0,0,0,6,8,0,0,0,0
4,2,1,18552040,48.766156357137,2.4648743337793,0,0,0,179.19975280762,0.12979330122471,0.1063175573945,0,0,0,0.54577904939651,0,0,0,6,8,0,0,0,0
4,2,1,18602805,48.766153415744,2.4648743006284,0,0,0,178.81701660156,0.11486867070198,0.061187144368887,0,0,0,0.52978444099426,0,0,0,6,8,0,0,0,0
4,2,1,18652144,48.766150786747,2.4648742106037,0,0,0,178.38354492188,0.17699201405048,0.14380197227001,0,0,0,0.56342858076096,0,0,0,6,8,0,0,0,0
4,2,1,18702491,48.766148142187,2.4648740779185,0,0,0,178.04556274414,0.21376730501652,0.16777545213699,0,0,0,0.60305088758469,0,0,0,6,8,0,0,0,0
4,2,1,18762435,48.766144603155,2.4648739863745,0,0,0,177.57621765137,0.12440317124128,0.061426859349012,0,0,0,0.5520726442337,0,0,0,6,8,0,0,0,0
4,2,1,18813187,48.76614185845,2.4648738208456,0,0,0,177.22454833984,0.18781200051308,0.1521433442831,0,0,0,0.63496416807175,0,0,0,6,8,0,0,0,0
4,2,1,18863579,48.766138907278,2.4648737108687,0,0,0,176.86444091797,0.13929976522923,0.062636651098728,0,0,0,0.49304732680321,0,0,0,6,8,0,0,0,0
4,2,1,18906919,48.766136637397,2.4648735511611,0,0,0,176.58236694336,0.12969651818275,0.056110765784979,0,0,0,0.50418502092361,0,0,0,6,9,0,0,0,0
4,2,1,18952453,48.766133942405,2.4648732887185,0,0,0,176.24339294434,0.20745594799519,0.18097032606602,0,0,0,0.6214634180069,0,0,0,6,9,0,0,0,0
4,2,1,19007243,48.766130764829,2.4648730111448,0,0,0,175.87689208984,0.14120842516422,0.070025682449341,0,0,0,0.52174830436707,0,0,0,6,9,0,0,0,0
4,2,1,19056616,48.766127849633,2.464872702438,0,0,0,175.55422973633,0.12923738360405,0.053631164133549,0,0,0,0.51141560077667,0,0,0,6,9,0,0,0,0
4,2,1,19107236,48.766124784906,2.4648723379537,0,0,0,175.13841247559,0.2165644466877,0.18071502447128,0,0,0,0.63199371099472,0,0,0,6,9,0,0,0,0
4,2,1,19152748,48.766122158717,2.4648719846472,0,0,0,174.81069946289,0.16549590229988,0.07805248349905,0,0,0,0.51233667135239,0,0,0,6,9,0,0,0,0
4,2,1,19202420,48.766119131776,2.464871559757,0,0,0,174.40179443359,0.13167142868042,0.059277225285769,0,0,0,0.51645421981812,0,0,0,6,9,0,0,0,0
4,2,1,19257837,48.766116020463,2.4648710936052,0,0,0,173.87870788574,0.19767710566521,0.16145807504654,0,0,0,1.0702737569809,0,0,0,6,9,0,0,0,0
4,2,1,19307688,48.766112999076,2.4648705927388,0,0,0,173.55172729492,0.14885871112347,0.080969758331776,0,0,0,0.49495130777359,0,0,0,6,9,0,0,0,0
4,2,1,19357810,48.766109874182,2.4648700679558,0,0,0,173.18963623047,0.12589973211288,0.054217435419559,0,0,0,0.50273895263672,0,0,0,6,9,0,0,0,0
4,2,1,19407037,48.766106897792,2.4648695030659,0,0,0,172.86865234375,0.12380827218294,0.054669082164764,0,0,0,0.5334712266922,0,0,0,6,9,0,0,0,0
4,2,1,19462479,48.766103598457,2.464868852404,0,0,0,172.47550964355,0.21031023561954,0.17627811431885,0,0,0,0.57995331287384,0,0,0,6,9,0,0,0,0
4,2,1,19503324,48.766101088433,2.464868497088,0,0,0,172.1416015625,0.15492087602615,0.080416642129421,0,0,0,0.47034466266632,0,0,0,6,9,0,0,0,0
4,2,1,19563184,48.766097225151,2.4648676883011,0,0,0,171.63442993164,0.11658298969269,0.057181414216757,0,0,0,0.46689432859421,0,0,0,6,9,0,0,0,0
4,2,1,19612805,48.766094077373,2.4648670290644,0,0,0,171.22817993164,0.19251553714275,0.18142747879028,0,0,0,0.5363262295723,0,0,0,6,9,0,0,0,0
4,2,1,19652857,48.766091537267,2.4648664349503,0,0,0,170.94577026367,0.12280687689781,0.078053660690784,0,0,0,0.42474588751793,0,0,0,6,9,0,0,0,0
4,2,1,19711820,48.76608806445,2.4648656110264,0,0,0,170.56703186035,0.10439239442348,0.057315975427628,0,0,0,0.40653973817825,0,0,0,6,9,0,0,0,0
4,2,1,19757463,48.766085299363,2.464864930418,0,0,0,170.26536560059,0.14693641662598,0.12168795615435,0,0,0,0.56533306837082,0,0,0,6,9,0,0,0,0
4,2,1,19812447,48.766081979824,2.4648640611976,0,0,0,169.84962463379,0.15605854988098,0.14552107453346,0,0,0,0.47421044111252,0,0,0,6,9,0,0,0,0
4,2,1,19857849,48.766079166944,2.4648632648486,0,0,0,169.50505065918,0.10622442513704,0.066829591989517,0,0,0,0.42514804005623,0,0,0,6,9,0,0,0,0
4,2,1,19908052,48.766075857152,2.4648623271472,0,0,0,169.16291809082,0.14324513077736,0.12180391699076,0,0,0,0.52942615747452,0,0,0,6,9,0,0,0,0
4,2,1,19962145,48.766072682186,2.464861447265,0,0,0,168.76712036133,0.13819040358067,0.12693609297276,0,0,0,0.42189213633537,0,0,0,6,9,0,0,0,0
4,2,1,20002838,48.7660699906,2.4648606383342,0,0,0,168.4292755127,0.099636167287827,0.073570050299168,0,0,0,0.43304798007011,0,0,0,6,9,0,0,0,0
4,2,1,20057356,48.766066642801,2.4648595820368,0,0,0,168.08009338379,0.091887049376965,0.059556774795055,0,0,0,0.44485518336296,0,0,0,6,9,0,0,0,0
4,2,1,20107346,48.766063377527,2.4648584515857,0,0,0,167.7027130127,0.19897401332855,0.18479239940643,0,0,0,0.58588176965714,0,0,0,6,9,0,0,0,0
4,2,1,20161783,48.766060056664,2.4648573900531,0,0,0,167.28067016602,0.12190682440996,0.076835311949253,0,0,0,0.40932992100716,0,0,0,6,9,0,0,0,0
4,2,1,20203011,48.7660574269,2.4648564425863,0,0,0,166.97396850586,0.10960262268782,0.074020177125931,0,0,0,0.45895567536354,0,0,0,6,9,0,0,0,0
4,2,1,20264408,48.766053441059,2.4648550666221,0,0,0,166.44911193848,0.1835689842701,0.17609153687954,0,0,0,0.54639315605164,0,0,0,6,9,0,0,0,0
4,2,1,20307516,48.766050827162,2.4648541299137,0,0,0,166.16445922852,0.16281059384346,0.15001875162125,0,0,0,0.48623594641685,0,0,0,6,9,0,0,0,0
4,2,1,20362524,48.766047346072,2.4648528100538,0,0,0,165.78228759766,0.091130346059799,0.067941062152386,0,0,0,0.5000296831131,0,0,0,6,9,0,0,0,0
4,2,1,20403022,48.766044802218,2.4648518803476,0,0,0,165.42951965332,0.13449351489544,0.11836723983288,0,0,0,0.56985241174698,0,0,0,6,9,0,0,0,0
4,2,1,20456741,48.766041373642,2.4648506143385,0,0,0,165.10050964355,0.17152133584023,0.14374461770058,0,0,0,0.50609648227692,0,0,0,6,9,0,0,0,0
4,2,1,20511661,48.766037830519,2.4648491181358,0,0,0,164.67320251465,0.091956928372383,0.065805532038212,0,0,0,0.46137166023254,0,0,0,6,9,0,0,0,0
4,2,1,20561617,48.766034489518,2.4648477425478,0,0,0,164.37689208984,0.13473138213158,0.1196956038475,0,0,0,0.57257997989655,0,0,0,6,9,0,0,0,0
4,2,1,20612605,48.766031266768,2.4648464201049,0,0,0,163.95167541504,0.19206640124321,0.16015593707561,0,0,0,0.5169797539711,0,0,0,6,9,0,0,0,0
4,2,1,20657734,48.766028541761,2.4648451615865,0,0,0,163.65037536621,0.10374604165554,0.062965869903564,0,0,0,0.43287369608879,0,0,0,6,9,0,0,0,0
4,2,1,20707500,48.76602511861,2.4648436790007,0,0,0,163.30924987793,0.085893467068672,0.052834492176771,0,0,0,0.4205521941185,0,0,0,6,9,0,0,0,0
4,2,1,20756982,48.766022090947,2.4648424041132,0,0,0,162.95837402344,0.20786415040493,0.19826862215996,0,0,0,0.51363533735275,0,0,0,6,9,0,0,0,0
4,2,1,20807328,48.766018921597,2.4648408757084,0,0,0,162.56750488281,0.1197906807065,0.099146358668804,0,0,0,0.44502672553062,0,0,0,6,9,0,0,0,0
4,2,1,20857211,48.766015813047,2.4648393451288,0,0,0,162.21917724609,0.084656737744808,0.059927564114332,0,0,0,0.42698821425438,0,0,0,6,9,0,0,0,0
4,2,1,20916563,48.76601213223,2.4648375682293,0,0,0,161.8251953125,0.17247441411018,0.16173973679543,0,0,0,0.4454303085804,0,0,0,6,9,0,0,0,0
4,2,1,20963286,48.766009133378,2.4648360690371,0,0,0,161.48408508301,0.083324484527111,0.061019770801067,0,0,0,0.39510852098465,0,0,0,6,9,0,0,0,0
4,2,1,21012954,48.766006010588,2.4648344966035,0,0,0,161.0931854248,0.077022567391396,0.057704985141754,0,0,0,0.4285472035408,0,0,0,6,9,0,0,0,0
4,2,1,21053151,48.766003608047,2.464833244017,0,0,0,160.86837768555,0.16288022696972,0.1556291282177,0,0,0,0.52422112226486,0,0,0,6,9,0,0,0,0
4,2,1,21107199,48.766000168712,2.4648314477369,0,0,0,160.44955444336,0.090931318700314,0.088246114552021,0,0,0,0.42118683457375,0,0,0,6,9,0,0,0,0
4,2,1,21157452,48.765996879348,2.4648296769111,0,0,0,160.09812927246,0.072157897055149,0.061862163245678,0,0,0,0.44304373860359,0,0,0,6,9,0,0,0,0
4,2,1,21207416,48.765993821429,2.464828043829,0,0,0,159.79133605957,0.16179195046425,0.15835464000702,0,0,0,0.549749314785,0,0,0,6,9,0,0,0,0
4,2,1,21252220,48.765991052088,2.4648264707862,0,0,0,159.50668334961,0.15425464510918,0.13448992371559,0,0,0,0.43870657682419,0,0,0,6,9,0,0,0,0
4,2,1,21306989,48.765987561985,2.4648244499333,0,0,0,159.16770935059,0.071680724620819,0.058791637420654,0,0,0,0.41543710231781,0,0,0,6,9,0,0,0,0
4,2,1,21357509,48.765984415246,2.4648225997067,0,0,0,158.83059692383,0.069722093641758,0.05824138969183,0,0,0,0.4109915792942,0,0,0,6,9,0,0,0,0
4,2,1,21407835,48.765981237258,2.4648207034498,0,0,0,158.49249267578,0.21363201737404,0.2037999778986,0,0,0,0.56779319047928,0,0,0,6,9,0,0,0,0
4,2,1,21457057,48.76597813266,2.4648188236492,0,0,0,158.15315246582,0.09653303027153,0.076183930039406,0,0,0,0.43895927071571,0,0,0,6,9,0,0,0,0
4,2,1,21512358,48.765974621089,2.4648166412995,0,0,0,157.78425598145,0.080685585737228,0.066527709364891,0,0,0,0.46321687102318,0,0,0,6,9,0,0,0,0
4,2,1,21552745,48.765972207461,2.4648151288171,0,0,0,157.61213684082,0.13409571349621,0.12780256569386,0,0,0,1.001766204834,0,0,0,6,9,0,0,0,0
4,2,1,21607720,48.765968821823,2.4648130085072,0,0,0,157.23640441895,0.18610933423042,0.16728176176548,0,0,0,0.4509719312191,0,0,0,6,9,0,0,0,0
4,2,1,21657451,48.765965543729,2.4648109191532,0,0,0,156.86477661133,0.084146589040756,0.069903999567032,0,0,0,0.44729533791542,0,0,0,6,9,0,0,0,0
4,2,1,21712892,48.765962274339,2.4648088905766,0,0,0,156.39486694336,0.17286039888859,0.16513749957085,0,0,0,1.0133664608002,0,0,0,6,9,0,0,0,0
4,2,1,21763373,48.765958891848,2.4648065603607,0,0,0,156.18537902832,0.13699518144131,0.10248423367739,0,0,0,0.44207215309143,0,0,0,6,9,0,0,0,0
4,2,1,21803069,48.765956466715,2.4648049516232,0,0,0,155.9515838623,0.1204671934247,0.092791110277176,0,0,0,0.48657098412514,0,0,0,6,9,0,0,0,0
4,2,1,21858131,48.7659530783,2.4648026609243,0,0,0,155.60101318359,0.16523113846779,0.15243065357208,0,0,0,0.53474181890488,0,0,0,6,9,0,0,0,0
4,2,1,21902964,48.765950318544,2.4648007989176,0,0,0,155.36454772949,0.16836908459663,0.13924807310104,0,0,0,0.46842390298843,0,0,0,6,9,0,0,0,0
4,2,1,21962510,48.765946392276,2.4647980624535,0,0,0,155.03034973145,0.084106996655464,0.06328247487545,0,0,0,0.43070927262306,0,0,0,6,9,0,0,0,0
4,2,1,22012254,48.765943279752,2.4647958539536,0,0,0,154.73750305176,0.16791018843651,0.15773078799248,0,0,0,0.50809234380722,0,0,0,6,9,0,0,0,0
4,2,1,22063004,48.765940215093,2.4647936227751,0,0,0,154.50091552734,0.12570711970329,0.097936980426311,0,0,0,0.41384094953537,0,0,0,6,9,0,0,0,0
4,2,1,22102415,48.765937668753,2.4647917437559,0,0,0,154.28047180176,0.082407124340534,0.061993192881346,0,0,0,0.40339404344559,0,0,0,6,9,0,0,0,0
4,2,1,22152740,48.765934366995,2.4647893155099,0,0,0,153.9522857666,0.075350150465965,0.05518164858222,0,0,0,0.41575774550438,0,0,0,6,9,0,0,0,0
4,2,1,22208006,48.765931073956,2.4647869030811,0,0,0,153.66928100586,0.12679663300514,0.14321553707123,0,0,0,0.41772237420082,0,0,0,6,9,0,0,0,0
4,2,1,22257092,48.765927917231,2.4647845850257,0,0,0,153.41976928711,0.078385777771473,0.065784357488155,0,0,0,0.44332328438759,0,0,0,6,9,0,0,0,0
4,2,1,22312249,48.765924418476,2.4647819375639,0,0,0,153.13661193848,0.077816016972065,0.059569619596004,0,0,0,0.42670691013336,0,0,0,6,9,0,0,0,0
4,2,1,22363002,48.765921171329,2.4647795162428,0,0,0,153.03797912598,0.20448009669781,0.19644209742546,0,0,0,1.0197750329971,0,0,0,6,9,0,0,0,0
4,2,1,22407218,48.765918699477,2.464777546447,0,0,0,152.6939239502,0.083078786730766,0.07126472145319,0,0,0,0.42048811912537,0,0,0,6,9,0,0,0,0
4,2,1,22463726,48.765914946321,2.4647745977129,0,0,0,152.35249328613,0.074860014021397,0.058856680989265,0,0,0,0.42427402734756,0,0,0,6,9,0,0,0,0
4,2,1,22503208,48.765912702766,2.4647727794314,0,0,0,152.18748474121,0.16616679728031,0.15918074548244,0,0,0,0.51819330453873,0,0,0,6,9,0,0,0,0
4,2,1,22562289,48.765909199606,2.464769951722,0,0,0,151.8953704834,0.15910652279854,0.13478964567184,0,0,0,0.46048840880394,0,0,0,6,9,0,0,0,0
4,2,1,22603106,48.765906473167,2.4647677291931,0,0,0,151.63459777832,0.077380128204823,0.057875916361809,0,0,0,0.4258496761322,0,0,0,6,9,0,0,0,0
4,2,1,22658073,48.765903155677,2.4647650494067,0,0,0,151.34887695312,0.15397493541241,0.15343584120274,0,0,0,0.46378022432327,0,0,0,6,9,0,0,0,0
4,2,1,22707706,48.765900143364,2.4647625853685,0,0,0,151.13418579102,0.076674394309521,0.063646830618382,0,0,0,0.44506213068962,0,0,0,6,9,0,0,0,0
4,2,1,22756865,48.765896938162,2.4647598450893,0,0,0,150.88066101074,0.13219183683395,0.1232772320509,0,0,0,1.015340924263,0,0,0,6,9,0,0,0,0
4,2,1,22807327,48.765893912135,2.4647572877146,0,0,0,150.61372375488,0.21944050490856,0.21183733642101,0,0,0,0.60095489025116,0,0,0,6,9,0,0,0,0
4,2,1,22863358,48.765890657471,2.4647545995269,0,0,0,150.29524230957,0.096207238733768,0.078597813844681,0,0,0,0.49749866127968,0,0,0,6,9,0,0,0,0
4,2,1,22913629,48.765887320287,2.4647517063091,0,0,0,150.06959533691,0.076206155121326,0.054671857506037,0,0,0,0.45751169323921,0,0,0,6,9,0,0,0,0
4,2,1,22952212,48.765884997562,2.4647496705683,0,0,0,149.88897705078,0.18632408976555,0.18977953493595,0,0,0,0.53190338611603,0,0,0,6,9,0,0,0,0
4,2,1,23007753,48.765881660358,2.4647467492275,0,0,0,149.67774963379,0.10365402698517,0.083516284823418,0,0,0,0.487453520298,0,0,0,6,9,0,0,0,0
4,2,1,23057665,48.765878417718,2.4647437944005,0,0,0,149.44821166992,0.079495921730995,0.059930626302958,0,0,0,0.470523416996,0,0,0,6,9,0,0,0,0
4,2,1,23107949,48.765875286767,2.4647409998066,0,0,0,149.28297424316,0.19217170774937,0.19133001565933,0,0,0,0.5581591129303,0,0,0,6,9,0,0,0,0
4,2,1,23156634,48.765872282453,2.4647383485442,0,0,0,148.99346923828,0.093962378799915,0.086533613502979,0,0,0,0.44335573911667,0,0,0,6,9,0,0,0,0
4,2,1,23213380,48.765868793167,2.4647351675616,0,0,0,148.70272827148,0.077633321285248,0.063405103981495,0,0,0,0.42441457509995,0,0,0,6,9,0,0,0,0
4,2,1,23263392,48.765865785598,2.4647324061289,0,0,0,148.46969604492,0.13326168060303,0.12524230778217,0,0,0,15.537295341492,0,0,0,6,9,0,0,0,0
4,2,1,23302798,48.765863364068,2.4647301531097,0,0,0,148.27621459961,0.23993287980556,0.2462882399559,0,0,0,31.236526489258,0,0,0,6,9,0,0,0,0
4,2,1,23357925,48.765864279034,2.4647310300146,0,0,0,148.38928222656,0.13407225906849,0.13689640164375,0,0,0,0.39695611596107,0,0,0,6,9,0,0,0,0
4,2,1,23412028,48.765856741653,2.4647239600615,0,0,0,147.56530761719,0.071747064590454,0.060260999947786,0,0,0,0.45823866128922,0,0,0,6,9,0,0,0,0
4,2,1,23456760,48.765854158738,2.4647215509418,0,0,0,147.23400878906,0.17292042076588,0.16770054399967,0,0,0,1.0137503147125,0,0,0,6,9,0,0,0,0
4,2,1,23511896,48.765850673577,2.4647181563584,0,0,0,146.91619873047,0.1075361892581,0.099956378340721,0,0,0,0.44319000840187,0,0,0,6,9,0,0,0,0
4,2,1,23562309,48.765847683737,2.4647152374724,0,0,0,146.66694641113,0.082653611898422,0.06829658895731,0,0,0,0.46345654129982,0,0,0,6,9,0,0,0,0
4,2,1,23613909,48.76584458695,2.4647121181306,0,0,0,146.39488220215,0.076066754758358,0.0627161860466,0,0,0,0.46810418367386,0,0,0,6,9,0,0,0,0
4,2,1,23662517,48.765841589701,2.4647091246739,0,0,0,146.15705871582,0.13267697393894,0.12769237160683,0,0,0,0.43874496221542,0,0,0,6,9,0,0,0,0
4,2,1,23712406,48.76583859031,2.4647060755626,0,0,0,145.94766235352,0.091069743037224,0.080803170800209,0,0,0,0.4089058637619,0,0,0,6,9,0,0,0,0
4,2,1,23762221,48.765835711905,2.4647031541658,0,0,0,145.70635986328,0.074875436723232,0.063082627952099,0,0,0,0.40324681997299,0,0,0,6,9,0,0,0,0
4,2,1,23812970,48.765832703639,2.4647000623012,0,0,0,145.42625427246,0.16132636368275,0.1584380120039,0,0,0,0.51912665367126,0,0,0,6,9,0,0,0,0
4,2,1,23853107,48.765830238059,2.4646974341157,0,0,0,145.23661804199,0.13454888761044,0.12940454483032,0,0,0,0.45609921216965,0,0,0,6,9,0,0,0,0
4,2,1,23906599,48.765827048376,2.4646940781746,0,0,0,144.95420837402,0.073988556861877,0.061800342053175,0,0,0,0.42454764246941,0,0,0,6,9,0,0,0,0
4,2,1,23957692,48.765823833926,2.4646906377588,0,0,0,144.65991210938,0.072527199983597,0.061532344669104,0,0,0,0.43243670463562,0,0,0,6,9,0,0,0,0
4,2,1,24002783,48.765821237888,2.4646879596984,0,0,0,144.41404724121,0.16422098875046,0.16163620352745,0,0,0,0.54461705684662,0,0,0,6,9,0,0,0,0
4,2,1,24053578,48.765817989833,2.4646844634813,0,0,0,144.10842895508,0.083180159330368,0.075798146426678,0,0,0,0.43433359265327,0,0,0,6,9,0,0,0,0
4,2,1,24107012,48.765815011604,2.4646811646363,0,0,0,143.84164428711,0.070656895637512,0.058565624058247,0,0,0,0.41594895720482,0,0,0,6,9,0,0,0,0
4,2,1,24152494,48.76581227555,2.4646781125152,0,0,0,143.62927246094,0.070102408528328,0.058263637125492,0,0,0,0.46056789159775,0,0,0,6,9,0,0,0,0
4,2,1,24212416,48.765808572692,2.4646739290689,0,0,0,143.3053894043,0.11278126388788,0.11539127677679,0,0,0,0.48408275842667,0,0,0,6,9,0,0,0,0
4,2,1,24252999,48.765806203714,2.4646712445777,0,0,0,143.08888244629,0.068666256964207,0.059887390583754,0,0,0,0.46833381056786,0,0,0,6,9,0,0,0,0
4,2,1,24307445,48.765802969891,2.4646675705435,0,0,0,142.82231140137,0.067956157028675,0.058311987668276,0,0,0,0.45204609632492,0,0,0,6,9,0,0,0,0
4,2,1,24362331,48.765799929556,2.4646640365967,0,0,0,142.49450683594,0.11145016551018,0.11116808652878,0,0,0,0.48074269294739,0,0,0,6,9,0,0,0,0
4,2,1,24402950,48.765797596342,2.4646613086746,0,0,0,142.34153747559,0.076760470867157,0.066836625337601,0,0,0,0.48309099674225,0,0,0,6,9,0,0,0,0
4,2,1,24452875,48.765794663252,2.4646578822974,0,0,0,142.04583740234,0.070766381919384,0.061021402478218,0,0,0,0.49883955717087,0,0,0,6,9,0,0,0,0
4,2,1,24507454,48.765791561306,2.4646542392696,0,0,0,141.71864318848,0.13188752532005,0.13192906975746,0,0,0,0.48950445652008,0,0,0,6,9,0,0,0,0
4,2,1,24552987,48.765788831323,2.4646509773634,0,0,0,141.48918151855,0.084495380520821,0.078307203948498,0,0,0,0.49043464660645,0,0,0,6,9,0,0,0,0
4,2,1,24611922,48.765785489743,2.4646469345318,0,0,0,141.18778991699,0.073341898620129,0.063266858458519,0,0,0,0.48035451769829,0,0,0,6,9,0,0,0,0
4,2,1,24657152,48.765782879525,2.4646437732812,0,0,0,140.94552612305,0.072352737188339,0.060894660651684,0,0,0,0.50722438097,0,0,0,6,9,0,0,0,0
4,2,1,24702587,48.765780264346,2.4646405508031,0,0,0,140.76008605957,0.12629184126854,0.14567808806896,0,0,0,0.53142994642258,0,0,0,6,9,0,0,0,0
4,2,1,24752971,48.765777202607,2.4646367385873,0,0,0,140.5556640625,0.073656305670738,0.061406295746565,0,0,0,0.48373606801033,0,0,0,6,9,0,0,0,0
4,2,1,24812253,48.765773957726,2.46463270416,0,0,0,140.27467346191,0.073299780488014,0.061969514936209,0,0,0,0.51245951652527,0,0,0,6,9,0,0,0,0
4,2,1,24853108,48.765771556313,2.4646295668361,0,0,0,140.06161499023,0.080345891416073,0.080120205879211,0,0,0,0.48609057068825,0,0,0,6,9,0,0,0,0
4,2,1,24913439,48.765768078203,2.4646250793226,0,0,0,139.76319885254,0.068388618528843,0.058585967868567,0,0,0,0.49475038051605,0,0,0,6,9,0,0,0,0
4,2,1,24962348,48.765765305181,2.4646215343206,0,0,0,139.48654174805,0.068127788603306,0.059979032725096,0,0,0,0.50190812349319,0,0,0,6,9,0,0,0,0
4,2,1,25012147,48.765762497214,2.4646179041933,0,0,0,139.20477294922,0.15053832530975,0.15702049434185,0,0,0,0.57716888189316,0,0,0,6,9,0,0,0,0
4,2,1,25061538,48.765759806533,2.4646144081232,0,0,0,138.9450378418,0.11704973131418,0.14136970043182,0,0,0,0.52258956432343,0,0,0,6,9,0,0,0,0
4,2,1,25102965,48.765757451255,2.4646112520007,0,0,0,138.67454528809,0.07394327968359,0.067668445408344,0,0,0,0.4971995651722,0,0,0,6,9,0,0,0,0
4,2,1,25163038,48.765754065082,2.4646066913815,0,0,0,138.32678222656,0.12832699716091,0.12449689954519,0,0,0,1.1207627058029,0,0,0,6,9,0,0,0,0
4,2,1,25213133,48.765751204051,2.464602981535,0,0,0,137.97793579102,0.22248087823391,0.23455722630024,0,0,0,0.60604852437973,0,0,0,6,9,0,0,0,0
4,2,1,25252520,48.765749116586,2.4645999968076,0,0,0,137.74101257324,0.077116131782532,0.086214698851109,0,0,0,0.49094724655151,0,0,0,6,9,0,0,0,0
4,2,1,25302772,48.76574632396,2.4645961340286,0,0,0,137.40620422363,0.069891288876534,0.062166843563318,0,0,0,0.47331261634827,0,0,0,6,9,0,0,0,0
4,2,1,25357283,48.765743404588,2.4645920719951,0,0,0,137.06465148926,0.18115486204624,0.17982034385204,0,0,0,0.60433447360992,0,0,0,6,9,0,0,0,0
4,2,1,25411787,48.765740529463,2.4645880662383,0,0,0,136.75006103516,0.074539497494698,0.066443391144276,0,0,0,0.47190144658089,0,0,0,6,9,0,0,0,0
4,2,1,25463313,48.765737623272,2.4645838835288,0,0,0,136.33813476562,0.07018805295229,0.06187204644084,0,0,0,0.48635274171829,0,0,0,6,9,0,0,0,0
4,2,1,25503491,48.765735575465,2.4645809177411,0,0,0,136.15348815918,0.17022410035133,0.16709819436073,0,0,0,0.98947143554688,0,0,0,6,9,0,0,0,0
4,2,1,25562383,48.765732563479,2.4645765652064,0,0,0,135.66989135742,0.082678332924843,0.091623790562153,0,0,0,0.51237970590591,0,0,0,6,9,0,0,0,0
4,2,1,25602306,48.765730467697,2.4645734650854,0,0,0,135.34809875488,0.075942508876324,0.07858631759882,0,0,0,0.5469599366188,0,0,0,6,9,0,0,0,0
4,2,1,25656875,48.765727549967,2.4645691411516,0,0,0,134.9542388916,0.070666909217834,0.062133304774761,0,0,0,0.50636923313141,0,0,0,6,9,0,0,0,0
4,2,1,25713582,48.76572470487,2.4645648357411,0,0,0,134.49430847168,0.12783010303974,0.12393639236689,0,0,0,0.59563356637955,0,0,0,6,9,0,0,0,0
4,2,1,25756766,48.765722479802,2.4645614077188,0,0,0,134.17114257812,0.14592675864697,0.14489807188511,0,0,0,0.50695276260376,0,0,0,6,9,0,0,0,0
4,2,1,25816554,48.765719362129,2.4645565074252,0,0,0,133.76174926758,0.071067690849304,0.065101973712444,0,0,0,0.48697230219841,0,0,0,6,9,0,0,0,0
4,2,1,25853343,48.765717433105,2.464553418154,0,0,0,133.47761535645,0.069419659674168,0.064522370696068,0,0,0,0.49398773908615,0,0,0,6,9,0,0,0,0
4,2,1,25912735,48.765714493281,2.4645486624068,0,0,0,132.99795532227,0.10972685366869,0.11496710777283,0,0,0,0.54881983995438,0,0,0,6,9,0,0,0,0
4,2,1,25962556,48.765712069207,2.4645446409383,0,0,0,132.60845947266,0.068570576608181,0.063775829970837,0,0,0,0.51895672082901,0,0,0,6,9,0,0,0,0
4,2,1,26012446,48.765709772353,2.464540841694,0,0,0,132.26091003418,0.06900991499424,0.062524877488613,0,0,0,0.50684863328934,0,0,0,6,9,0,0,0,0
4,2,1,26056832,48.765707713133,2.4645374077708,0,0,0,131.90771484375,0.15565831959248,0.15503123402596,0,0,0,0.57309573888779,0,0,0,6,9,0,0,0,0
4,2,1,26102424,48.765705585191,2.4645338000862,0,0,0,131.55796813965,0.12275102734566,0.13303139805794,0,0,0,0.49723735451698,0,0,0,6,9,0,0,0,0
4,2,1,26157283,48.765703000275,2.4645292573971,0,0,0,131.09384155273,0.070650301873684,0.067038290202618,0,0,0,0.47867500782013,0,0,0,6,9,0,0,0,0
4,2,1,26207474,48.765700589434,2.4645249362417,0,0,0,130.7505645752,0.12619364261627,0.12455774098635,0,0,0,1.0222232341766,0,0,0,6,9,0,0,0,0
4,2,1,26257540,48.765698328562,2.4645209422142,0,0,0,130.26231384277,0.22022984921932,0.23456984758377,0,0,0,0.55369985103607,0,0,0,6,9,0,0,0,0
4,2,1,26307594,48.765696277964,2.4645171304148,0,0,0,129.8289642334,0.079012989997864,0.087593369185925,0,0,0,0.469681173563,0,0,0,6,9,0,0,0,0
4,2,1,26357755,48.765693958245,2.464512895432,0,0,0,129.41957092285,0.066324308514595,0.064628891646862,0,0,0,0.46762758493423,0,0,0,6,9,0,0,0,0
4,2,1,26407716,48.765691832594,2.4645089714408,0,0,0,129.06092834473,0.067438580095768,0.065435186028481,0,0,0,0.46967121958733,0,0,0,6,9,0,0,0,0
4,2,1,26461725,48.765689583837,2.4645049040984,0,0,0,128.68823242188,0.18237455189228,0.17227445542812,0,0,0,0.53873205184937,0,0,0,6,9,0,0,0,0
4,2,1,26512289,48.765687392023,2.4645005799159,0,0,0,128.26721191406,0.07081388682127,0.069949097931385,0,0,0,0.44130954146385,0,0,0,6,9,0,0,0,0
4,2,1,26562739,48.765685332738,2.4644966181005,0,0,0,127.88050842285,0.069221585988998,0.069890655577183,0,0,0,0.49281018972397,0,0,0,6,9,0,0,0,0
4,2,1,26607446,48.765683663609,2.4644932300988,0,0,0,127.53922271729,0.063656948506832,0.064457133412361,0,0,0,0.45633691549301,0,0,0,6,9,0,0,0,0
4,2,1,26662177,48.765681432417,2.4644888170515,0,0,0,127.11772918701,0.063242867588997,0.065351106226444,0,0,0,0.48241680860519,0,0,0,6,9,0,0,0,0
4,2,1,26707108,48.765679640174,2.4644851331447,0,0,0,126.74820709229,0.12549932301044,0.12817627191544,0,0,0,0.52081286907196,0,0,0,6,9,0,0,0,0
4,2,1,26763352,48.765677591931,2.4644810029652,0,0,0,126.34225463867,0.063471496105194,0.068507805466652,0,0,0,0.47720575332642,0,0,0,6,9,0,0,0,0
4,2,1,26807169,48.765675914409,2.4644775306866,0,0,0,126.00658416748,0.061755511909723,0.068494156002998,0,0,0,0.48032522201538,0,0,0,6,9,0,0,0,0
4,2,1,26852792,48.765674207095,2.4644740502491,0,0,0,125.63391876221,0.16125664114952,0.16093882918358,0,0,0,0.57845830917358,0,0,0,6,9,0,0,0,0
4,2,1,26906875,48.765672151575,2.4644697146147,0,0,0,125.30619812012,0.11028952896595,0.10329858213663,0,0,0,0.50343656539917,0,0,0,6,9,0,0,0,0
4,2,1,26956515,48.765670224717,2.4644655857814,0,0,0,124.95366668701,0.065372824668884,0.072239495813847,0,0,0,0.4859973192215,0,0,0,6,9,0,0,0,0
4,2,1,27013462,48.765668270117,2.4644613491353,0,0,0,124.5938873291,0.059504043310881,0.071715451776981,0,0,0,0.47503066062927,0,0,0,6,9,0,0,0,0
4,2,1,27062661,48.76566649891,2.4644574081824,0,0,0,124.27960205078,0.20660702884197,0.21431623399258,0,0,0,0.58922106027603,0,0,0,6,9,0,0,0,0
4,2,1,27107397,48.765664930266,2.4644540563995,0,0,0,124.04383087158,0.082402840256691,0.11670415848494,0,0,0,0.4956904053688,0,0,0,6,9,0,0,0,0
4,2,1,27152397,48.765663256559,2.4644503021332,0,0,0,123.7943649292,0.061508510261774,0.082122348248959,0,0,0,0.48138123750687,0,0,0,6,9,0,0,0,0
4,2,1,27213441,48.765661202536,2.4644457235827,0,0,0,123.48023223877,0.060080073773861,0.076145246624947,0,0,0,0.50568372011185,0,0,0,6,9,0,0,0,0
4,2,1,27251681,48.765659888668,2.4644427379175,0,0,0,123.27243041992,0.13206893205643,0.14149053394794,0,0,0,0.46942844986916,0,0,0,6,9,0,0,0,0
4,2,1,27306511,48.765658184335,2.4644387746447,0,0,0,122.99301147461,0.099782526493073,0.09416064620018,0,0,0,0.46761640906334,0,0,0,6,9,0,0,0,0
4,2,1,27357780,48.765656601464,2.464434896391,0,0,0,122.69274139404,0.068298175930977,0.074339523911476,0,0,0,0.4834831058979,0,0,0,6,9,0,0,0,0
4,2,1,27407745,48.765655015349,2.4644310202997,0,0,0,122.34543609619,0.065657645463943,0.073320426046848,0,0,0,0.48573622107506,0,0,0,6,9,0,0,0,0
4,2,1,27462075,48.765653526611,2.4644272281768,0,0,0,122.00882720947,0.077395468950272,0.10639012604952,0,0,0,0.45905148983002,0,0,0,6,9,0,0,0,0
4,2,1,27503378,48.765652179358,2.4644239475119,0,0,0,121.74555206299,0.063041381537914,0.078357711434364,0,0,0,0.45306739211082,0,0,0,6,9,0,0,0,0
4,2,1,27561831,48.765650499068,2.4644198784644,0,0,0,121.47402191162,0.062981531023979,0.076920628547668,0,0,0,0.45472323894501,0,0,0,6,9,0,0,0,0
4,2,1,27612109,48.765648915527,2.4644159423353,0,0,0,121.14080047607,0.11294347047806,0.13775935769081,0,0,0,0.49652376770973,0,0,0,6,9,0,0,0,0
4,2,1,27662466,48.765647524121,2.4644123077501,0,0,0,120.84685516357,0.075379014015198,0.093552432954311,0,0,0,0.48526301980019,0,0,0,6,9,0,0,0,0
4,2,1,27712501,48.765646007527,2.4644084058864,0,0,0,120.54096221924,0.069327585399151,0.083177454769611,0,0,0,0.50341629981995,0,0,0,6,9,0,0,0,0
4,2,1,27758285,48.765644754752,2.4644050948911,0,0,0,120.26350402832,0.12192589044571,0.12858493626118,0,0,0,0.5510630607605,0,0,0,6,9,0,0,0,0
4,2,1,27807188,48.765643467915,2.4644016030563,0,0,0,119.98114013672,0.073647975921631,0.082846067845821,0,0,0,0.48295149207115,0,0,0,6,9,0,0,0,0
4,2,1,27858253,48.765641914859,2.4643974825803,0,0,0,119.70529937744,0.060719884932041,0.070735312998295,0,0,0,0.47894060611725,0,0,0,6,9,0,0,0,0
4,2,1,27912044,48.76564050147,2.4643936906075,0,0,0,119.41896820068,0.12287147343159,0.12554059922695,0,0,0,0.57031548023224,0,0,0,6,9,0,0,0,0
4,2,1,27952208,48.765639282951,2.4643904966311,0,0,0,119.17874145508,0.11372704803944,0.099038861691952,0,0,0,0.50039935112,0,0,0,6,9,0,0,0,0
4,2,1,28002411,48.765637859094,2.4643865819517,0,0,0,118.88260650635,0.067157991230488,0.073267571628094,0,0,0,0.48052227497101,0,0,0,6,9,0,0,0,0
4,2,1,28062725,48.76563635005,2.4643823224052,0,0,0,118.56879425049,0.066084235906601,0.074630878865719,0,0,0,0.49657097458839,0,0,0,6,9,0,0,0,0
4,2,1,28104713,48.765635200199,2.4643790444965,0,0,0,118.34157562256,0.15588700771332,0.16308259963989,0,0,0,0.52434867620468,0,0,0,6,9,0,0,0,0
4,2,1,28162961,48.765633619929,2.4643744520175,0,0,0,117.98400878906,0.069847948849201,0.083489373326302,0,0,0,0.50066536664963,0,0,0,6,9,0,0,0,0
4,2,1,28207685,48.765632510192,2.4643712800367,0,0,0,117.83266448975,0.066946290433407,0.081042796373367,0,0,0,0.52887719869614,0,0,0,6,9,0,0,0,0
4,2,1,28256931,48.765631153331,2.4643673213334,0,0,0,117.63148498535,0.12573586404324,0.13268066942692,0,0,0,0.8685947060585,0,0,0,6,9,0,0,0,0
4,2,1,28312172,48.765629737465,2.4643630095748,0,0,0,117.32099151611,0.13040500879288,0.19868226349354,0,0,0,0.5206304192543,0,0,0,6,9,0,0,0,0
4,2,1,28356608,48.765628618125,2.4643597863775,0,0,0,117.0841293335,0.084697723388672,0.15280067920685,0,0,0,0.51270914077759,0,0,0,6,9,0,0,0,0
4,2,1,28401858,48.765627458676,2.4643563318023,0,0,0,116.8567199707,0.071192711591721,0.11164064705372,0,0,0,0.52491289377213,0,0,0,6,9,0,0,0,0
4,2,1,28457170,48.765626169702,2.4643522745608,0,0,0,116.50700378418,0.15800224244595,0.16616205871105,0,0,0,0.61089694499969,0,0,0,6,9,0,0,0,0
4,2,1,28513858,48.765624772801,2.464348016566,0,0,0,116.22018432617,0.081676907837391,0.11101323366165,0,0,0,0.55397760868073,0,0,0,6,9,0,0,0,0
4,2,1,28563219,48.76562373986,2.4643447335173,0,0,0,115.98326873779,0.067904151976109,0.094804935157299,0,0,0,0.56267338991165,0,0,0,6,9,0,0,0,0
4,2,1,28603102,48.76562297058,2.4643422056817,0,0,0,115.81218719482,0.064380377531052,0.092183105647564,0,0,0,0.55472618341446,0,0,0,6,9,0,0,0,0
4,2,1,28657182,48.765621866447,2.4643386639767,0,0,0,115.62089538574,0.11757358908653,0.13618139922619,0,0,0,0.5792573094368,0,0,0,6,9,0,0,0,0
4,2,1,28711755,48.765620747812,2.4643350039924,0,0,0,115.38674163818,0.13627453148365,0.20255587995052,0,0,0,0.54002755880356,0,0,0,6,9,0,0,0,0
4,2,1,28757767,48.765619879953,2.4643321934401,0,0,0,115.17350006104,0.089378900825977,0.15108728408813,0,0,0,0.51050591468811,0,0,0,6,9,0,0,0,0
4,2,1,28808029,48.76561879663,2.4643288406728,0,0,0,114.98070526123,0.074323989450932,0.12024772167206,0,0,0,0.51922559738159,0,0,0,6,9,0,0,0,0
4,2,1,28858006,48.765617825421,2.464325629089,0,0,0,114.77813720703,0.067115657031536,0.10038397461176,0,0,0,0.54232043027878,0,0,0,6,9,0,0,0,0
4,2,1,28913029,48.76561673447,2.4643223113638,0,0,0,114.64908599854,0.1740193516016,0.17099919915199,0,0,0,0.52072048187256,0,0,0,6,9,0,0,0,0
4,2,1,28957175,48.765615898548,2.4643193984328,0,0,0,114.4806137085,0.12419317662716,0.11785812675953,0,0,0,0.52855610847473,0,0,0,6,9,0,0,0,0
4,2,1,29007085,48.765614972061,2.4643162045111,0,0,0,114.33589935303,0.074586383998394,0.093189239501953,0,0,0,0.5191667675972,0,0,0,6,9,0,0,0,0
4,2,1,29062201,48.765613876118,2.4643125568681,0,0,0,114.16760253906,0.12060879915953,0.13288260996342,0,0,0,0.59835880994797,0,0,0,6,9,0,0,0,0
4,2,1,29102692,48.765613088694,2.4643099071412,0,0,0,113.98259735107,0.10631284117699,0.12426660209894,0,0,0,0.54958176612854,0,0,0,6,9,0,0,0,0
4,2,1,29156590,48.765612047953,2.464306475369,0,0,0,113.79838562012,0.066075950860977,0.093408271670341,0,0,0,0.54178202152252,0,0,0,6,9,0,0,0,0
4,2,1,29203386,48.765611151104,2.4643034167883,0,0,0,113.58391571045,0.063044853508472,0.092125549912453,0,0,0,0.51601326465607,0,0,0,6,9,0,0,0,0
4,2,1,29263207,48.765610111571,2.4642995991272,0,0,0,113.28712463379,0.20153631269932,0.21521399915218,0,0,0,0.63276338577271,0,0,0,6,9,0,0,0,0
4,2,1,29307788,48.765609326339,2.4642969400165,0,0,0,113.0530166626,0.088187478482723,0.14632852375507,0,0,0,0.53128731250763,0,0,0,6,9,0,0,0,0
4,2,1,29357032,48.765608391875,2.4642936332275,0,0,0,112.86891937256,0.069629855453968,0.10345863550901,0,0,0,0.54205292463303,0,0,0,6,9,0,0,0,0
4,2,1,29413397,48.765607272441,2.4642897553197,0,0,0,112.58813476562,0.18241359293461,0.19989065825939,0,0,0,0.61563336849213,0,0,0,6,9,0,0,0,0
4,2,1,29456810,48.765606491497,2.4642868265464,0,0,0,112.37274169922,0.15311869978905,0.21376477181911,0,0,0,0.54265660047531,0,0,0,6,9,0,0,0,0
4,2,1,29512881,48.76560558477,2.4642832060918,0,0,0,112.15724182129,0.10514014959335,0.1771914511919,0,0,0,0.53120547533035,0,0,0,6,9,0,0,0,0
4,2,1,29557593,48.765604772916,2.4642803902438,0,0,0,111.99739074707,0.16998000442982,0.19365364313126,0,0,0,0.60913497209549,0,0,0,6,9,0,0,0,0
4,2,1,29603648,48.765603991553,2.4642775378335,0,0,0,111.79475402832,0.15885780751705,0.13433989882469,0,0,0,0.53034114837646,0,0,0,6,9,0,0,0,0
4,2,1,29653440,48.765603101385,2.464274033296,0,0,0,111.55181884766,0.062952697277069,0.091489970684052,0,0,0,0.4987795650959,0,0,0,6,9,0,0,0,0
4,2,1,29712326,48.765602134062,2.464270254746,0,0,0,111.32649230957,0.059694558382034,0.088733412325382,0,0,0,0.49708944559097,0,0,0,6,9,0,0,0,0
4,2,1,29762930,48.765601188121,2.4642666839433,0,0,0,111.18446350098,0.13499204814434,0.15384332835674,0,0,0,0.50925296545029,0,0,0,6,9,0,0,0,0
4,2,1,29812365,48.765600324052,2.4642632071794,0,0,0,111.02206420898,0.074215985834599,0.097416169941425,0,0,0,0.53111773729324,0,0,0,6,9,0,0,0,0
4,2,1,29851820,48.765599668693,2.4642605087005,0,0,0,110.96245574951,0.058360144495964,0.088165886700153,0,0,0,0.53659725189209,0,0,0,6,9,0,0,0,0
4,2,1,29902760,48.765598757654,2.464256781906,0,0,0,110.84362030029,0.055047452449799,0.086399957537651,0,0,0,0.55250281095505,0,0,0,6,9,0,0,0,0
4,2,1,29952871,48.765597828395,2.4642532678582,0,0,0,110.70777893066,0.17685337364674,0.14010778069496,0,0,0,0.55703794956207,0,0,0,6,9,0,0,0,0
4,2,1,30007400,48.765596956188,2.4642494876617,0,0,0,110.54458618164,0.11521661281586,0.091951057314873,0,0,0,0.54958760738373,0,0,0,6,9,0,0,0,0
4,2,1,30057869,48.765596053067,2.4642456939559,0,0,0,110.37550354004,0.071909114718437,0.083395548164845,0,0,0,0.5079500079155,0,0,0,6,9,0,0,0,0
4,2,1,30108022,48.765595121481,2.4642419899985,0,0,0,110.26106262207,0.10890120267868,0.14717938005924,0,0,0,0.49227568507195,0,0,0,6,9,0,0,0,0
4,2,1,30153039,48.765594346917,2.4642388038457,0,0,0,110.15194702148,0.066908992826939,0.10092448443174,0,0,0,0.50960952043533,0,0,0,6,9,0,0,0,0
4,2,1,30207020,48.765593343141,2.4642347279854,0,0,0,109.97026062012,0.056215915828943,0.078380681574345,0,0,0,0.50313782691956,0,0,0,6,9,0,0,0,0
4,2,1,30262309,48.765592326259,2.4642304993012,0,0,0,109.83522796631,0.11737431585789,0.13441647589207,0,0,0,0.46459364891052,0,0,0,6,9,0,0,0,0
4,2,1,30302001,48.765591652886,2.4642275435747,0,0,0,109.72305297852,0.064472869038582,0.093815967440605,0,0,0,0.47045996785164,0,0,0,6,9,0,0,0,0
4,2,1,30357299,48.765590660691,2.4642233327181,0,0,0,109.56094360352,0.055316526442766,0.078693337738514,0,0,0,0.46883884072304,0,0,0,6,9,0,0,0,0
4,2,1,30407738,48.765589742384,2.4642193342046,0,0,0,109.40296173096,0.12321153283119,0.13425274193287,0,0,0,15.514057159424,0,0,0,6,9,0,0,0,0
4,2,1,30458062,48.765589451544,2.4642178458386,0,0,0,109.33602905273,0.1254476159811,0.14060808718204,0,0,0,15.52868270874,0,0,0,6,9,0,0,0,0
4,2,1,30507587,48.765589203271,2.4642167381515,0,0,0,109.26583862305,0.12491372227669,0.13954618573189,0,0,0,15.505312919617,0,0,0,6,9,0,0,0,0
4,2,1,30562231,48.765588330298,2.4642127289293,0,0,0,109.21746826172,0.2367260158062,0.24902364611626,0,0,0,15.42616558075,0,0,0,6,9,0,0,0,0
4,2,1,30607855,48.765586226421,2.4642041362744,0,0,0,108.6579208374,0.060382373631001,0.079802937805653,0,0,0,0.48943364620209,0,0,0,6,9,0,0,0,0
4,2,1,30661710,48.765585224072,2.4641991825825,0,0,0,108.55518341064,0.061596035957336,0.081631727516651,0,0,0,0.48004323244095,0,0,0,6,9,0,0,0,0
4,2,1,30706907,48.765584316398,2.464195328809,0,0,0,108.48461151123,0.16748927533627,0.17889323830605,0,0,0,0.4910743534565,0,0,0,6,9,0,0,0,0
4,2,1,30752536,48.765583522551,2.4641917256315,0,0,0,108.43480682373,0.08353715389967,0.11272168904543,0,0,0,0.45301321148872,0,0,0,6,9,0,0,0,0
4,2,1,30807126,48.765582572771,2.4641874600775,0,0,0,108.32794189453,0.064729928970337,0.089834198355675,0,0,0,0.43667215108871,0,0,0,6,9,0,0,0,0
4,2,1,30862458,48.765581519554,2.4641830334693,0,0,0,108.22427368164,0.18670380115509,0.15940910577774,0,0,0,0.47276365756989,0,0,0,6,9,0,0,0,0
4,2,1,30912273,48.765580550954,2.4641787099389,0,0,0,108.09212493896,0.18312267959118,0.1434979736805,0,0,0,0.53351521492004,0,0,0,6,9,0,0,0,0
4,2,1,30952597,48.765579857951,2.4641752692503,0,0,0,107.93393707275,0.076360896229744,0.087038807570934,0,0,0,0.50598019361496,0,0,0,6,9,0,0,0,0
4,2,1,31007598,48.765578868776,2.4641707401792,0,0,0,107.71327972412,0.17229290306568,0.18156671524048,0,0,0,0.5491800904274,0,0,0,6,9,0,0,0,0
4,2,1,31062429,48.765577960549,2.4641661920857,0,0,0,107.51027679443,0.063213422894478,0.085763804614544,0,0,0,0.50901758670807,0,0,0,6,9,0,0,0,0
4,2,1,31107964,48.76557715378,2.464162139989,0,0,0,107.3423538208,0.059935942292213,0.081416003406048,0,0,0,0.48195025324821,0,0,0,6,9,0,0,0,0
4,2,1,31157685,48.765576262011,2.4641577973721,0,0,0,107.23468780518,0.20657692849636,0.20089407265186,0,0,0,0.54831391572952,0,0,0,6,9,0,0,0,0
4,2,1,31212914,48.765575338662,2.4641531867593,0,0,0,107.11743927002,0.073936834931374,0.084597773849964,0,0,0,0.43618094921112,0,0,0,6,9,0,0,0,0
4,2,1,31252085,48.765574613562,2.4641494971279,0,0,0,107.02946472168,0.06603054702282,0.079738169908524,0,0,0,0.45678004622459,0,0,0,6,9,0,0,0,0
4,2,1,31306795,48.765573649918,2.4641448156491,0,0,0,106.94855499268,0.16085821390152,0.1857942044735,0,0,0,0.5282683968544,0,0,0,6,9,0,0,0,0
4,2,1,31357134,48.76557280535,2.464140264515,0,0,0,106.85870361328,0.068330228328705,0.10701790452003,0,0,0,0.44320347905159,0,0,0,6,9,0,0,0,0
4,2,1,31412140,48.765571824164,2.4641354628861,0,0,0,106.73284912109,0.064054824411869,0.080353751778603,0,0,0,0.4367564022541,0,0,0,6,9,0,0,0,0
4,2,1,31462359,48.765570912643,2.4641307908791,0,0,0,106.60594177246,0.106933362782,0.16968807578087,0,0,0,0.38239681720734,0,0,0,6,9,0,0,0,0
4,2,1,31508142,48.765570037888,2.4641264638072,0,0,0,106.52347564697,0.069059789180756,0.12217535078526,0,0,0,0.39365032315254,0,0,0,6,9,0,0,0,0
4,2,1,31553218,48.765569289716,2.4641226027668,0,0,0,106.42598724365,0.063371121883392,0.096119791269302,0,0,0,0.43488717079163,0,0,0,6,9,0,0,0,0
4,2,1,31603459,48.765568307263,2.4641176171004,0,0,0,106.29711151123,0.15755026042461,0.16276885569096,0,0,0,0.50530284643173,0,0,0,6,9,0,0,0,0
4,2,1,31658265,48.765567425007,2.4641126643954,0,0,0,106.17530059814,0.071359790861607,0.10719383507967,0,0,0,0.43033665418625,0,0,0,6,9,0,0,0,0
4,2,1,31707573,48.765566483984,2.4641077280974,0,0,0,106.05742645264,0.06149523332715,0.081190161406994,0,0,0,0.46682035923004,0,0,0,6,9,0,0,0,0
4,2,1,31757449,48.765565574026,2.4641029018819,0,0,0,105.90807342529,0.12617334723473,0.13383856415749,0,0,0,1.0342441797256,0,0,0,6,9,0,0,0,0
4,2,1,31801730,48.765564755769,2.4640986803782,0,0,0,105.8069229126,0.22740763425827,0.23177199065685,0,0,0,1.0750731229782,0,0,0,6,9,0,0,0,0
4,2,1,31857630,48.765563831455,2.4640935816195,0,0,0,105.68943786621,0.080277733504772,0.14233869314194,0,0,0,0.49234694242477,0,0,0,6,9,0,0,0,0
4,2,1,31903294,48.765563008233,2.4640891384327,0,0,0,105.60185241699,0.066042430698872,0.086626268923283,0,0,0,0.4609232544899,0,0,0,6,9,0,0,0,0
4,2,1,31957601,48.765561932979,2.4640833888468,0,0,0,105.49774932861,0.063674509525299,0.078512877225876,0,0,0,0.48121538758278,0,0,0,6,9,0,0,0,0
4,2,1,32012718,48.765560980353,2.4640781356469,0,0,0,105.37474060059,0.15301252901554,0.1659762263298,0,0,0,0.53859013319016,0,0,0,6,9,0,0,0,0
4,2,1,32056789,48.76556016728,2.4640736894297,0,0,0,105.28553009033,0.096870355308056,0.1664132475853,0,0,0,0.511510014534,0,0,0,6,9,0,0,0,0
4,2,1,32102240,48.765559294549,2.4640688273987,0,0,0,105.17358398438,0.061112057417631,0.087441526353359,0,0,0,0.4613815844059,0,0,0,6,9,0,0,0,0
4,2,1,32161781,48.765558320513,2.4640631427072,0,0,0,105.02236175537,0.060346785932779,0.074442759156227,0,0,0,0.45452263951302,0,0,0,6,9,0,0,0,0
4,2,1,32207423,48.765557518835,2.4640583013651,0,0,0,104.88789367676,0.20355595648289,0.2135294675827,0,0,0,0.58161324262619,0,0,0,6,9,0,0,0,0
4,2,1,32262197,48.765556543383,2.4640526871162,0,0,0,104.78304290771,0.06733974814415,0.094496689736843,0,0,0,0.46962830424309,0,0,0,6,9,0,0,0,0
4,2,1,32313327,48.765555631513,2.4640474518032,0,0,0,104.64932250977,0.060994312167168,0.072168752551079,0,0,0,0.46251055598259,0,0,0,6,9,0,0,0,0
4,2,1,32358076,48.76555484696,2.4640427833644,0,0,0,104.57752990723,0.061587512493134,0.073543347418308,0,0,0,0.49140998721123,0,0,0,6,9,0,0,0,0
4,2,1,32411931,48.765553800776,2.4640368994586,0,0,0,104.42897796631,0.14885656535625,0.11735539883375,0,0,0,0.52067983150482,0,0,0,6,9,0,0,0,0
