version_major,version_minor,status,timestamp,latitude,longitude,altitude,roll,pitch,heading,latitude_sigma,longitude_sigma,altitude_sigma,roll_sigma,pitch_sigma,heading_sigma,a_sigma,b_sigma,c_sigma,quality,number_of_satellites,hdop,vdop,hpl,vpl
4,2,1,11807282,48.766256019058,2.4648361100258,0,0,0,191.4047088623,7.0829100608826,7.0971789360046,0,0,0,97.556953430176,0,0,0,1,8,1,0,0,0
4,2,1,11857502,48.7662560027,2.4648364143839,0,0,0,190.1229095459,5.1463208198547,5.1480469703674,0,0,0,18.564256668091,0,0,0,1,8,1,0,0,0
4,2,1,11912655,48.766255428648,2.4648365714938,0,0,0,190.48402404785,5.1503367424011,5.1521801948547,0,0,0,36.82727432251,0,0,0,1,8,1,0,0,0
4,2,1,11952815,48.766254998705,2.4648366929352,0,0,0,190.76983642578,5.1533527374268,5.1554589271545,0,0,0,46.041370391846,0,0,0,1,8,1,0,0,0
4,2,1,12007531,48.766254382096,2.4648368729766,0,0,0,191.18957519531,5.1574010848999,5.1603560447693,0,0,0,56.126667022705,0,0,0,1,8,1,0,0,0
4,2,1,12052772,48.766253858826,2.4648370313098,0,0,0,191.5584564209,5.1604781150818,5.1647682189941,0,0,0,62.772636413574,0,0,0,1,8,1,0,0,0
4,2,1,12107858,48.766253202883,2.4648372374444,0,0,0,192.03433227539,5.164614200592,5.1716165542603,0,0,0,70.632621765137,0,0,0,1,8,1,0,0,0
4,2,1,12161943,48.766252535178,2.4648374560452,0,0,0,192.51434326172,5.1688284873962,5.1800675392151,0,0,0,77.709732055664,0,0,0,1,8,1,0,0,0
4,2,1,12212362,48.76625189404,2.4648376745271,0,0,0,193.00033569336,5.1731238365173,5.1901292800903,0,0,0,84.206314086914,0,0,0,1,8,1,0,0,0
4,2,1,12252809,48.766251371587,2.464837858883,0,0,0,193.39706420898,5.1764607429504,5.1995849609375,0,0,0,88.826042175293,0,0,0,1,8,1,0,0,0
4,2,1,12312107,48.766250607181,2.4648381389831,0,0,0,193.98292541504,5.1811447143555,5.2158117294312,0,0,0,94.733436584473,0,0,0,1,8,1,0,0,0
4,2,1,12362452,48.766249914667,2.4648384037559,0,0,0,194.53343200684,5.1859750747681,5.2340250015259,0,0,0,100.2364654541,0,0,0,1,8,1,0,0,0
4,2,1,12403132,48.76624935635,2.4648386250665,0,0,0,194.99028015137,5.1898422241211,5.2509121894836,0,0,0,104.24277496338,0,0,0,1,8,1,0,0,0
4,2,1,12457579,48.766248580766,2.4648389442269,0,0,0,195.60171508789,5.1953892707825,5.2781195640564,0,0,0,109.35955047607,0,0,0,1,8,1,0,0,0
4,2,1,12512092,48.766247788198,2.4648392841571,0,0,0,196.21389770508,5.2014532089233,5.3109068870544,0,0,0,114.24863433838,0,0,0,1,8,1,0,0,0
4,2,1,12561867,48.766247053923,2.4648396115776,0,0,0,196.7728729248,5.207869052887,5.3464860916138,0,0,0,118.86296844482,0,0,0,1,8,1,0,0,0
4,2,1,12611955,48.766246302467,2.464839958715,0,0,0,197.33535766602,5.2149443626404,5.3880414962769,0,0,0,123.30979919434,0,0,0,1,8,1,0,0,0
4,2,1,12662495,48.766245535521,2.4648403255994,0,0,0,197.90292358398,5.2228116989136,5.436137676239,0,0,0,127.60799407959,0,0,0,1,8,1,0,0,0
4,2,1,12707430,48.766244846203,2.4648406658352,0,0,0,198.40754699707,5.2300243377686,5.4840188026428,0,0,0,130.83842468262,0,0,0,1,8,1,0,0,0
4,2,1,12757480,48.766244081003,2.4648410565705,0,0,0,199.06719970703,5.2395844459534,5.5437378883362,0,0,0,135.01026916504,0,0,0,1,8,1,0,0,0
4,2,1,12806837,48.766243313539,2.4648414634266,0,0,0,199.71772766113,5.2502784729004,5.6101379394531,0,0,0,139.04577636719,0,0,0,1,8,1,0,0,0
4,2,1,12862463,48.76624439748,2.4648411605063,0,0,0,194.7746887207,4.4103817939758,4.4744067192078,0,0,0,19.728302001953,0,0,0,1,8,1,0,0,0
4,2,1,12912591,48.766243556075,2.4648415020532,0,0,0,195.43537902832,4.415180683136,4.4796571731567,0,0,0,38.712181091309,0,0,0,1,8,1,0,0,0
4,2,1,12962237,48.766242715273,2.4648418590603,0,0,0,196.0897064209,4.4200396537781,4.4857068061829,0,0,0,51.048988342285,0,0,0,1,8,1,0,0,0
4,2,1,13011956,48.766241862195,2.4648422375872,0,0,0,196.78378295898,4.425030708313,4.4932432174683,0,0,0,61.046669006348,0,0,0,1,8,1,0,0,0
4,2,1,13057403,48.766241080538,2.4648425989764,0,0,0,197.41822814941,4.4290337562561,4.5012755393982,0,0,0,67.863746643066,0,0,0,1,8,1,0,0,0
4,2,1,13114130,48.766240108681,2.4648430684875,0,0,0,198.21012878418,4.4346632957458,4.5147733688354,0,0,0,75.890083312988,0,0,0,1,8,1,0,0,0
4,2,1,13157271,48.766239372515,2.4648434391672,0,0,0,198.81237792969,4.4392371177673,4.5278306007385,0,0,0,81.406959533691,0,0,0,1,8,1,0,0,0
4,2,1,13203333,48.766238571938,2.4648438574542,0,0,0,199.45541381836,4.4454770088196,4.5461378097534,0,0,0,87.923851013184,0,0,0,1,8,1,0,0,0
4,2,1,13252372,48.766237707061,2.4648443261391,0,0,0,200.13999938965,4.4524946212769,4.5699968338013,0,0,0,94.06420135498,0,0,0,1,8,1,0,0,0
4,2,1,13306907,48.766236749627,2.4648448654546,0,0,0,200.90130615234,4.4607467651367,4.6020259857178,0,0,0,99.95597076416,0,0,0,1,8,1,0,0,0
4,2,1,13361804,48.766235790704,2.4648454277273,0,0,0,201.66766357422,4.4702596664429,4.6412334442139,0,0,0,105.52723693848,0,0,0,1,8,1,0,0,0
4,2,1,13412800,48.766234904482,2.4648459675067,0,0,0,202.37956237793,4.4807472229004,4.6847410202026,0,0,0,110.73690032959,0,0,0,1,8,1,0,0,0
4,2,1,13462539,48.766234044461,2.4648465100567,0,0,0,203.07392883301,4.4925394058228,4.7339553833008,0,0,0,115.68625640869,0,0,0,1,8,1,0,0,0
4,2,1,13513756,48.766233163461,2.4648470850523,0,0,0,203.78890991211,4.5062866210938,4.7917366027832,0,0,0,120.46240234375,0,0,0,1,8,1,0,0,0
4,2,1,13557218,48.766232419581,2.4648475858401,0,0,0,204.3956451416,4.5190901756287,4.8463263511658,0,0,0,124.01829528809,0,0,0,1,8,1,0,0,0
4,2,1,13608454,48.766231547102,2.4648481911314,0,0,0,205.0171661377,4.5367836952209,4.9183440208435,0,0,0,128.36206054688,0,0,0,1,8,1,0,0,0
4,2,1,13652575,48.766230746768,2.4648487606758,0,0,0,205.53073120117,4.5544972419739,4.9910550117493,0,0,0,131.58529663086,0,0,0,1,8,1,0,0,0
4,2,1,13712350,48.766229632432,2.4648495758005,0,0,0,206.22650146484,4.5840005874634,5.1050043106079,0,0,0,136.59594726562,0,0,0,1,8,1,0,0,0
4,2,1,13752022,48.766228896463,2.4648501279321,0,0,0,206.68829345703,4.605929851532,5.1876759529114,0,0,0,139.56817626953,0,0,0,1,8,1,0,0,0
4,2,1,13806719,48.766227886365,2.4648509030536,0,0,0,207.21006774902,4.6398596763611,5.311110496521,0,0,0,143.32804870605,0,0,0,1,8,1,0,0,0
4,2,1,13863556,48.766229345287,2.4648499745285,0,0,0,203.5855255127,4.0296764373779,4.2065577507019,0,0,0,9.9750690460205,0,0,0,1,8,1,0,0,0
4,2,1,13907377,48.76622848141,2.4648505485436,0,0,0,203.94801330566,4.0337882041931,4.2109980583191,0,0,0,29.793460845947,0,0,0,1,8,1,0,0,0
4,2,1,13963195,48.766227362475,2.464851305757,0,0,0,204.35548400879,4.0394277572632,4.2177166938782,0,0,0,43.750545501709,0,0,0,1,8,1,0,0,0
4,2,1,14003401,48.766226541657,2.4648518703825,0,0,0,204.64898681641,4.0439047813416,4.2239246368408,0,0,0,51.769420623779,0,0,0,1,8,1,0,0,0
4,2,1,14052461,48.766225533333,2.4648525746206,0,0,0,205.00712585449,4.0502681732178,4.2340402603149,0,0,0,60.752010345459,0,0,0,1,8,1,0,0,0
4,2,1,14113163,48.766224267013,2.4648534749733,0,0,0,205.45025634766,4.0580673217773,4.2501006126404,0,0,0,68.765266418457,0,0,0,1,8,1,0,0,0
4,2,1,14151676,48.766223453716,2.4648540629362,0,0,0,205.73139953613,4.0644226074219,4.2642464637756,0,0,0,74.099143981934,0,0,0,1,8,1,0,0,0
4,2,1,14202795,48.766222365449,2.4648548582398,0,0,0,205.87606811523,4.0741381645203,4.2880291938782,0,0,0,80.216079711914,0,0,0,1,8,1,0,0,0
4,2,1,14262979,48.766221064381,2.4648558154669,0,0,0,206.01847839355,4.0881814956665,4.3251895904541,0,0,0,87.19384765625,0,0,0,1,8,1,0,0,0
4,2,1,14308170,48.766220078671,2.4648565444796,0,0,0,206.11518859863,4.1009035110474,4.3605842590332,0,0,0,92.368934631348,0,0,0,1,8,1,0,0,0
4,2,1,14357067,48.766219003657,2.4648573430533,0,0,0,206.21981811523,4.1163830757141,4.4064259529114,0,0,0,97.28150177002,0,0,0,1,8,1,0,0,0
4,2,1,14407259,48.766217897276,2.4648581686767,0,0,0,206.32171630859,4.134663105011,4.4625339508057,0,0,0,101.95355224609,0,0,0,1,8,1,0,0,0
4,2,1,14457182,48.766216767623,2.4648590154467,0,0,0,206.42304992676,4.156093120575,4.5298414230347,0,0,0,106.41988372803,0,0,0,1,8,1,0,0,0
4,2,1,14511971,48.766215504194,2.4648599661133,0,0,0,206.46195983887,4.1832160949707,4.6173286437988,0,0,0,110.62060546875,0,0,0,1,8,1,0,0,0
4,2,1,14561534,48.766214344648,2.4648608389459,0,0,0,206.43081665039,4.2121315002441,4.7101998329163,0,0,0,114.65730285645,0,0,0,1,8,1,0,0,0
4,2,1,14613373,48.766213115602,2.4648617621619,0,0,0,206.36207580566,4.2464323043823,4.8214392662048,0,0,0,118.60456848145,0,0,0,1,8,1,0,0,0
4,2,1,14652993,48.766212167554,2.4648624722409,0,0,0,206.29801940918,4.2756357192993,4.9164156913757,0,0,0,121.49649810791,0,0,0,1,8,1,0,0,0
4,2,1,14707357,48.76621084538,2.4648634590783,0,0,0,206.19430541992,4.3203992843628,5.0621776580811,0,0,0,125.27087402344,0,0,0,1,8,1,0,0,0
4,2,1,14757798,48.766209597565,2.4648643857653,0,0,0,206.0633392334,4.3675079345703,5.2142958641052,0,0,0,128.96714782715,0,0,0,1,8,1,0,0,0
4,2,1,14801982,48.766208488709,2.4648652045111,0,0,0,205.9044342041,4.4124999046326,5.3604702949524,0,0,0,131.74240112305,0,0,0,1,8,1,0,0,0
4,2,1,14862604,48.766210584602,2.4648682274552,0,0,0,214.8882598877,3.8497569561005,4.1612391471863,0,0,0,18.503530502319,0,0,0,1,8,1,0,0,0
4,2,1,14911989,48.766209424254,2.4648694462986,0,0,0,214.57038879395,3.8559272289276,4.16779088974,0,0,0,36.611457824707,0,0,0,1,8,1,0,0,0
4,2,1,14951524,48.766208487158,2.4648704195107,0,0,0,214.26649475098,3.8611266613007,4.1738295555115,0,0,0,45.931369781494,0,0,0,1,8,1,0,0,0
4,2,1,15016399,48.76620692589,2.464872016115,0,0,0,213.73857116699,3.8716008663177,4.1876039505005,0,0,0,58.298904418945,0,0,0,1,8,1,0,0,0
4,2,1,15058062,48.766205917184,2.4648730307847,0,0,0,213.38664245605,3.8797590732574,4.1998105049133,0,0,0,64.680404663086,0,0,0,1,8,1,0,0,0
4,2,1,15113586,48.766204566462,2.4648743682884,0,0,0,212.90238952637,3.8932971954346,4.2219557762146,0,0,0,72.351737976074,0,0,0,1,8,1,0,0,0
4,2,1,15162248,48.766203376324,2.4648755256951,0,0,0,212.45100402832,3.9087359905243,4.2487025260925,0,0,0,79.217628479004,0,0,0,1,8,1,0,0,0
4,2,1,15201882,48.766202402549,2.4648764578556,0,0,0,212.05378723145,3.9233169555664,4.2757563591003,0,0,0,84.112869262695,0,0,0,1,8,1,0,0,0
4,2,1,15262176,48.766200912717,2.4648778554822,0,0,0,211.36946105957,3.949239730835,4.3274130821228,0,0,0,90.510063171387,0,0,0,1,8,1,0,0,0
4,2,1,15307305,48.766199790209,2.4648788833309,0,0,0,210.79730224609,3.9723842144012,4.3759632110596,0,0,0,95.12979888916,0,0,0,1,8,1,0,0,0
4,2,1,15357601,48.766198530711,2.4648800074172,0,0,0,210.10148620605,4.0029149055481,4.4419584274292,0,0,0,100.8505859375,0,0,0,1,8,1,0,0,0
4,2,1,15407359,48.766197275796,2.4648810963668,0,0,0,209.39248657227,4.0373778343201,4.5200171470642,0,0,0,106.28512573242,0,0,0,1,8,1,0,0,0
4,2,1,15457275,48.766196007979,2.4648821649105,0,0,0,208.67219543457,4.0762186050415,4.6121182441711,0,0,0,111.47131347656,0,0,0,1,8,1,0,0,0
4,2,1,15512995,48.766194582151,2.4648833284555,0,0,0,207.84741210938,4.1252932548523,4.733006477356,0,0,0,117.52471160889,0,0,0,1,8,1,0,0,0
4,2,1,15552335,48.766193568946,2.464884131394,0,0,0,207.2456817627,4.1625070571899,4.8295364379883,0,0,0,121.16013336182,0,0,0,1,8,1,0,0,0
4,2,1,15613198,48.766191990383,2.4648853411917,0,0,0,206.28453063965,4.2255129814148,4.9992370605469,0,0,0,126.93370819092,0,0,0,1,8,1,0,0,0
4,2,1,15662015,48.766190714545,2.4648862820307,0,0,0,205.48957824707,4.2801833152771,5.1534085273743,0,0,0,131.4029083252,0,0,0,1,8,1,0,0,0
4,2,1,15712847,48.766189377056,2.46488723331,0,0,0,204.65455627441,4.3405742645264,5.3312654495239,0,0,0,135.77719116211,0,0,0,1,8,1,0,0,0
4,2,1,15757852,48.766188185197,2.4648880503417,0,0,0,203.91471862793,4.3973727226257,5.5041742324829,0,0,0,139.89744567871,0,0,0,1,8,1,0,0,0
4,2,1,15812749,48.766186722344,2.4648890162437,0,0,0,203.0200958252,4.468957901001,5.733323097229,0,0,0,144.08390808105,0,0,0,1,8,1,0,0,0
4,2,1,15852753,48.766185650144,2.4648896982197,0,0,0,202.36521911621,4.5232119560242,5.9134483337402,0,0,0,147.12680053711,0,0,0,1,8,1,0,0,0
4,2,1,15914675,48.766183980621,2.4648907175671,0,0,0,201.32922363281,4.6093029975891,6.2130265235901,0,0,0,151.27488708496,0,0,0,1,8,1,0,0,0
4,2,1,15957007,48.766182832223,2.4648913874154,0,0,0,200.59623718262,4.6699318885803,6.4326357841492,0,0,0,154.26261901855,0,0,0,1,8,1,0,0,0
4,2,1,16012626,48.766181314661,2.464892232502,0,0,0,199.62466430664,4.7518854141235,6.7395420074463,0,0,0,158.84794616699,0,0,0,1,8,1,0,0,0
4,2,1,16062313,48.766179951219,2.4648929548986,0,0,0,198.75804138184,4.8253960609436,7.0298323631287,0,0,0,162.51780700684,0,0,0,1,8,1,0,0,0
4,2,1,16112194,48.766178575373,2.464893648788,0,0,0,197.904296875,4.8994770050049,7.3365135192871,0,0,0,166.09313964844,0,0,0,1,8,1,0,0,0
4,2,1,16163718,48.766176834478,2.464894483493,0,0,0,197.04866027832,4.9921221733093,7.7427639961243,0,0,0,169.59567260742,0,0,0,1,8,1,0,0,0
4,2,1,16212790,48.766175168954,2.4648952418785,0,0,0,196.26049804688,5.0808010101318,8.1500635147095,0,0,0,172.96032714844,0,0,0,1,8,1,0,0,0
4,2,1,16261974,48.766173492959,2.4648959676398,0,0,0,195.49644470215,5.1695246696472,8.5769824981689,0,0,0,176.23677062988,0,0,0,1,8,1,0,0,0
4,2,1,16312319,48.76617893006,2.4649062027643,0,0,0,217.80458068848,4.012948513031,4.9563264846802,0,0,0,25.804075241089,0,0,0,1,8,1,0,0,0
4,2,1,16351838,48.766177820438,2.4649074959575,0,0,0,217.22518920898,4.0179352760315,4.9614181518555,0,0,0,39.064025878906,0,0,0,1,8,1,0,0,0
4,2,1,16407755,48.766176178717,2.4649093622236,0,0,0,216.42486572266,4.0265016555786,4.971034526825,0,0,0,51.792343139648,0,0,0,1,8,1,0,0,0
4,2,1,16461476,48.766174567551,2.4649111422955,0,0,0,215.67349243164,4.0382237434387,4.9855237007141,0,0,0,61.824249267578,0,0,0,1,8,1,0,0,0
4,2,1,16507387,48.766173164566,2.4649126526771,0,0,0,215.05270385742,4.0525879859924,5.0044493675232,0,0,0,70.129661560059,0,0,0,1,8,1,0,0,0
4,2,1,16552376,48.766171767189,2.4649141237006,0,0,0,214.46559143066,4.0709147453308,5.0302748680115,0,0,0,77.480072021484,0,0,0,1,8,1,0,0,0
4,2,1,16612390,48.766169873558,2.4649160690145,0,0,0,213.71229553223,4.1013932228088,5.0774211883545,0,0,0,84.518333435059,0,0,0,1,8,1,0,0,0
4,2,1,16656905,48.766168448621,2.4649174973391,0,0,0,213.1669921875,4.1303420066833,5.1246128082275,0,0,0,89.397598266602,0,0,0,1,8,1,0,0,0
4,2,1,16711835,48.766166665776,2.4649192433478,0,0,0,212.50180053711,4.174533367157,5.1997418403625,0,0,0,95.408592224121,0,0,0,1,8,1,0,0,0
4,2,1,16756831,48.766165177899,2.4649206661431,0,0,0,211.9568939209,4.2189569473267,5.2778034210205,0,0,0,100.86566925049,0,0,0,1,8,1,0,0,0
4,2,1,16807211,48.766163497548,2.4649222390444,0,0,0,211.39868164062,4.2762079238892,5.3829593658447,0,0,0,106.06285095215,0,0,0,1,8,1,0,0,0
4,2,1,16866450,48.766162838147,2.4649220636029,0,0,0,206.81130981445,3.8448710441589,4.619375705719,0,0,0,25.216945648193,0,0,0,1,8,1,0,0,0
4,2,1,16908124,48.766161343202,2.4649231991556,0,0,0,206.37278747559,3.8499064445496,4.6248512268066,0,0,0,38.067642211914,0,0,0,1,8,1,0,0,0
4,2,1,16963454,48.766159344019,2.4649246850028,0,0,0,205.81924438477,3.8577744960785,4.6361985206604,0,0,0,50.229789733887,0,0,0,1,8,1,0,0,0
4,2,1,17007504,48.76615773525,2.4649258550173,0,0,0,205.39561462402,3.865314245224,4.6505551338196,0,0,0,57.715953826904,0,0,0,1,8,1,0,0,0
4,2,1,17057545,48.766155880237,2.4649271765632,0,0,0,204.92073059082,3.8768780231476,4.6760449409485,0,0,0,66.176734924316,0,0,0,1,8,1,0,0,0
4,2,1,17106919,48.766154032153,2.4649284651321,0,0,0,204.45216369629,3.8912773132324,4.7129464149475,0,0,0,73.658126831055,0,0,0,1,8,1,0,0,0
4,2,1,17161760,48.766151954649,2.4649298813615,0,0,0,203.93171691895,3.9108271598816,4.7706875801086,0,0,0,80.551849365234,0,0,0,1,8,1,0,0,0
4,2,1,17212644,48.766150011837,2.4649311746467,0,0,0,203.44883728027,3.9336848258972,4.8435807228088,0,0,0,86.829956054688,0,0,0,1,8,1,0,0,0
4,2,1,17253142,48.766148445791,2.4649321959575,0,0,0,203.06451416016,3.9550528526306,4.9167609214783,0,0,0,91.295074462891,0,0,0,1,8,1,0,0,0
4,2,1,17303061,48.766146499825,2.4649334387104,0,0,0,202.59077453613,3.9861488342285,5.0276746749878,0,0,0,96.864105224609,0,0,0,1,8,1,0,0,0
4,2,1,17357111,48.766144365341,2.4649347695201,0,0,0,202.07783508301,4.025333404541,5.1756615638733,0,0,0,102.19209289551,0,0,0,1,8,1,0,0,0
4,2,1,17407309,48.766142375941,2.4649359793522,0,0,0,201.60145568848,4.0675029754639,5.3400554656982,0,0,0,107.20069122314,0,0,0,1,8,1,0,0,0
4,2,1,17457339,48.766140386651,2.464937160201,0,0,0,201.1266784668,4.1148085594177,5.5303235054016,0,0,0,111.98329925537,0,0,0,1,8,1,0,0,0
4,2,1,17512136,48.766138200552,2.4649384251904,0,0,0,200.60665893555,4.1721539497375,5.7689609527588,0,0,0,116.6326675415,0,0,0,1,8,1,0,0,0
4,2,1,17558551,48.766136343451,2.4649394751068,0,0,0,200.30078125,4.2263236045837,5.996413230896,0,0,0,120.81932830811,0,0,0,1,8,1,0,0,0
4,2,1,17612758,48.766134170026,2.4649406826617,0,0,0,199.94355773926,4.294677734375,6.2897434234619,0,0,0,124.93087768555,0,0,0,1,8,1,0,0,0
4,2,1,17662247,48.766132181426,2.4649417670653,0,0,0,199.62763977051,4.3628883361816,6.5836572647095,0,0,0,128.86061096191,0,0,0,1,8,1,0,0,0
4,2,1,17708196,48.766130331614,2.4649427592647,0,0,0,199.34748840332,4.4310817718506,6.8780732154846,0,0,0,132.63163757324,0,0,0,1,8,1,0,0,0
4,2,1,17753380,48.766128509624,2.4649437221593,0,0,0,199.0772857666,4.5013055801392,7.1862092018127,0,0,0,135.46087646484,0,0,0,1,8,1,0,0,0
4,2,1,17812123,48.766126136415,2.4649449544788,0,0,0,198.72601318359,4.5986685752869,7.6140718460083,0,0,0,139.13346862793,0,0,0,1,8,1,0,0,0
4,2,1,17851777,48.766125747385,2.4649409682356,0,0,0,192.23199462891,3.8619379997253,5.0237879753113,0,0,0,18.721267700195,0,0,0,1,8,1,0,0,0
4,2,1,17902355,48.766123635158,2.464941654365,0,0,0,191.9295501709,3.8680708408356,5.0317301750183,0,0,0,36.654705047607,0,0,0,1,8,1,0,0,0
4,2,1,17962824,48.766121106753,2.4649424524244,0,0,0,191.56793212891,3.8759801387787,5.0470395088196,0,0,0,50.791202545166,0,0,0,1,8,1,0,0,0
4,2,1,18013068,48.7661190034,2.4649430972488,0,0,0,191.26748657227,3.8827977180481,5.0682826042175,0,0,0,59.768028259277,0,0,0,1,8,1,0,0,0
4,2,1,18062761,48.766116920941,2.464943718554,0,0,0,190.97032165527,3.8901278972626,5.1003003120422,0,0,0,67.554748535156,0,0,0,1,8,1,0,0,0
4,2,1,18097248,48.766115474457,2.464944140011,0,0,0,190.7640838623,3.8958697319031,5.1307415962219,0,0,0,72.814582824707,0,0,0,1,8,1,0,0,0
4,2,1,18158580,48.766112899688,2.4649448709878,0,0,0,190.3973236084,3.9052319526672,5.2030439376831,0,0,0,79.470527648926,0,0,0,1,8,1,0,0,0
4,2,1,18207387,48.766110541853,2.4649455182876,0,0,0,190.10545349121,3.9152672290802,5.294340133667,0,0,0,85.471343994141,0,0,0,1,8,1,0,0,0
4,2,1,18258434,48.76610799895,2.4649461959913,0,0,0,189.80018615723,3.9268844127655,5.4220590591431,0,0,0,91.100532531738,0,0,0,1,8,1,0,0,0
4,2,1,18313155,48.766105270397,2.4649468995055,0,0,0,189.45011901855,3.9404046535492,5.595410823822,0,0,0,96.475204467773,0,0,0,1,8,1,0,0,0
4,2,1,18358814,48.766102991477,2.4649474664212,0,0,0,189.15151977539,3.9536385536194,5.7709383964539,0,0,0,101.48551940918,0,0,0,1,8,1,0,0,0
4,2,1,18407747,48.766100547029,2.4649480541732,0,0,0,188.82725524902,3.9685842990875,5.9902925491333,0,0,0,106.29808044434,0,0,0,1,8,1,0,0,0
4,2,1,18457812,48.766097941187,2.4649486575326,0,0,0,188.48838806152,3.9854228496552,6.2598323822021,0,0,0,110.92288208008,0,0,0,1,8,1,0,0,0
4,2,1,18512665,48.766095083491,2.4649492919091,0,0,0,188.11264038086,4.0047960281372,6.5969371795654,0,0,0,115.41323852539,0,0,0,1,8,1,0,0,0
4,2,1,18552040,48.766093030481,2.464949729681,0,0,0,187.84292602539,4.0196914672852,6.8653335571289,0,0,0,118.65329742432,0,0,0,1,8,1,0,0,0
4,2,1,18602805,48.766090381622,2.4649502724291,0,0,0,187.49517822266,4.0399785041809,7.2425117492676,0,0,0,122.82524871826,0,0,0,1,8,1,0,0,0
4,2,1,18652144,48.76608780512,2.4649507765257,0,0,0,187.15721130371,4.0607089996338,7.6412138938904,0,0,0,126.84781646729,0,0,0,1,8,1,0,0,0
4,2,1,18702491,48.766085173997,2.4649512671577,0,0,0,186.80407714844,4.0825200080872,8.0790405273438,0,0,0,130.76515197754,0,0,0,1,8,1,0,0,0
4,2,1,18762435,48.766081940337,2.4649518362341,0,0,0,186.38507080078,4.1102199554443,8.6573219299316,0,0,0,135.47625732422,0,0,0,1,8,1,0,0,0
4,2,1,18813187,48.766079174263,2.4649522950881,0,0,0,186.04402160645,4.1341328620911,9.1848363876343,0,0,0,139.13700866699,0,0,0,1,8,1,0,0,0
4,2,1,18863579,48.766078608207,2.4649491815932,0,0,0,183.51486206055,3.7935872077942,5.7480139732361,0,0,0,18.616889953613,0,0,0,1,9,0.89999997615814,0,0,0
4,2,1,18906919,48.766076236164,2.46494939589,0,0,0,183.22361755371,3.7983026504517,5.7551956176758,0,0,0,33.343509674072,0,0,0,1,9,0.89999997615814,0,0,0
4,2,1,18952453,48.766073743278,2.4649496007579,0,0,0,182.91784667969,3.8043746948242,5.7675852775574,0,0,0,45.890171051025,0,0,0,1,9,0.89999997615814,0,0,0
4,2,1,19007243,48.766070742763,2.4649498212494,0,0,0,182.55075073242,3.8106408119202,5.7925534248352,0,0,0,55.852256774902,0,0,0,1,9,0.89999997615814,0,0,0
4,2,1,19056616,48.766067922319,2.4649500021326,0,0,0,182.2211151123,3.8168680667877,5.8319978713989,0,0,0,64.195976257324,0,0,0,1,9,0.89999997615814,0,0,0
4,2,1,19107236,48.766065009765,2.4649501633156,0,0,0,181.87934875488,3.8231480121613,5.8938136100769,0,0,0,71.60082244873,0,0,0,1,9,0.89999997615814,0,0,0
4,2,1,19152748,48.766062384931,2.4649502863164,0,0,0,181.56181335449,3.828028678894,5.9711618423462,0,0,0,76.81339263916,0,0,0,1,9,0.89999997615814,0,0,0
4,2,1,19202420,48.766059519699,2.4649503946825,0,0,0,181.21188354492,3.8342862129211,6.0834255218506,0,0,0,83.11701965332,0,0,0,1,9,0.89999997615814,0,0,0
4,2,1,19257837,48.766056322635,2.464950484798,0,0,0,180.82504272461,3.8406343460083,6.245710849762,0,0,0,89.041084289551,0,0,0,1,9,0.89999997615814,0,0,0
4,2,1,19307688,48.766053446391,2.4649505376904,0,0,0,180.48127746582,3.8468143939972,6.4284052848816,0,0,0,94.522239685059,0,0,0,1,9,0.89999997615814,0,0,0
4,2,1,19357810,48.766050486566,2.4649505652606,0,0,0,180.13700866699,3.8529617786407,6.6542043685913,0,0,0,99.703254699707,0,0,0,1,9,0.89999997615814,0,0,0
4,2,1,19407037,48.766047574097,2.4649505660893,0,0,0,179.79833984375,3.8590250015259,6.9150061607361,0,0,0,104.61962890625,0,0,0,1,9,0.89999997615814,0,0,0
4,2,1,19462479,48.766044286269,2.4649505361715,0,0,0,179.4130859375,3.8651282787323,7.2553849220276,0,0,0,109.38300323486,0,0,0,1,9,0.89999997615814,0,0,0
4,2,1,19503324,48.766041854862,2.4649504924333,0,0,0,179.1242980957,3.869649887085,7.5382213592529,0,0,0,112.82353973389,0,0,0,1,9,0.89999997615814,0,0,0
4,2,1,19563184,48.766038271663,2.4649503933467,0,0,0,178.69264221191,3.8770134449005,8.0020046234131,0,0,0,118.26856231689,0,0,0,1,9,0.89999997615814,0,0,0
4,2,1,19612805,48.766035282042,2.4649502797063,0,0,0,178.33883666992,3.8829476833344,8.4299783706665,0,0,0,122.46148681641,0,0,0,1,9,0.89999997615814,0,0,0
4,2,1,19652857,48.766032858388,2.4649501674089,0,0,0,178.05783081055,3.8875014781952,8.8030624389648,0,0,0,125.53411865234,0,0,0,1,9,0.89999997615814,0,0,0
4,2,1,19711820,48.766029282895,2.4649499695656,0,0,0,177.65267944336,3.893862247467,9.3938913345337,0,0,0,129.55487060547,0,0,0,1,9,0.89999997615814,0,0,0
4,2,1,19757463,48.766026504367,2.4649497896272,0,0,0,177.34048461914,3.8989186286926,9.884407043457,0,0,0,132.50048828125,0,0,0,1,9,0.89999997615814,0,0,0
4,2,1,19812447,48.766023146591,2.464949540992,0,0,0,176.95724487305,3.9059548377991,10.511548995972,0,0,0,136.29049682617,0,0,0,1,9,0.89999997615814,0,0,0
4,2,1,19857849,48.766023229788,2.4649469372022,0,0,0,176.55476379395,3.7316544055939,6.495246887207,0,0,0,9.9668397903442,0,0,0,1,9,0.89999997615814,0,0,0
4,2,1,19908052,48.76602013584,2.4649466447573,0,0,0,176.20484924316,3.7380032539368,6.5038695335388,0,0,0,33.278518676758,0,0,0,1,9,0.89999997615814,0,0,0
4,2,1,19962145,48.766016783514,2.4649462958641,0,0,0,175.82781982422,3.7444818019867,6.5192279815674,0,0,0,46.088954925537,0,0,0,1,9,0.89999997615814,0,0,0
4,2,1,20002838,48.766014256808,2.4649460107693,0,0,0,175.54418945312,3.749419927597,6.5389442443848,0,0,0,53.730987548828,0,0,0,1,9,0.89999997615814,0,0,0
4,2,1,20057356,48.766010860534,2.4649455975922,0,0,0,175.1641998291,3.756199836731,6.5816187858582,0,0,0,62.487293243408,0,0,0,1,9,0.89999997615814,0,0,0
4,2,1,20107346,48.766007735647,2.4649451869415,0,0,0,174.81578063965,3.7631602287292,6.6427688598633,0,0,0,70.088088989258,0,0,0,1,9,0.89999997615814,0,0,0
4,2,1,20161783,48.76600431456,2.4649447045225,0,0,0,174.43635559082,3.7707762718201,6.7390837669373,0,0,0,77.00545501709,0,0,0,1,9,0.89999997615814,0,0,0
4,2,1,20217074,48.766000822921,2.4649441765987,0,0,0,174.05096435547,3.7791934013367,6.8744139671326,0,0,0,83.361991882324,0,0,0,1,9,0.89999997615814,0,0,0
4,2,1,20264408,48.765997815202,2.4649436926223,0,0,0,173.72105407715,3.7879920005798,7.0249419212341,0,0,0,89.168281555176,0,0,0,1,9,0.89999997615814,0,0,0
4,2,1,20307516,48.765995073183,2.4649432289052,0,0,0,173.42059326172,3.7960126399994,7.1911344528198,0,0,0,93.376335144043,0,0,0,1,9,0.89999997615814,0,0,0
4,2,1,20362524,48.765991561366,2.4649426027649,0,0,0,173.03718566895,3.8079710006714,7.4469728469849,0,0,0,98.680892944336,0,0,0,1,9,0.89999997615814,0,0,0
4,2,1,20403022,48.765988970654,2.4649421177049,0,0,0,172.75491333008,3.8181471824646,7.6672959327698,0,0,0,102.47113037109,0,0,0,1,9,0.89999997615814,0,0,0
4,2,1,20456741,48.765985516878,2.46494144054,0,0,0,172.38049316406,3.8337812423706,8.0030403137207,0,0,0,107.313621521,0,0,0,1,9,0.89999997615814,0,0,0
4,2,1,20511661,48.765981975437,2.4649407102706,0,0,0,171.99769592285,3.8526186943054,8.3968715667725,0,0,0,111.95877075195,0,0,0,1,9,0.89999997615814,0,0,0
4,2,1,20561617,48.765978740804,2.4649400111099,0,0,0,171.64950561523,3.873375415802,8.7996730804443,0,0,0,116.37149047852,0,0,0,1,9,0.89999997615814,0,0,0
4,2,1,20612605,48.765975437927,2.4649392659308,0,0,0,171.29411315918,3.8980519771576,9.2519521713257,0,0,0,120.63233184814,0,0,0,1,9,0.89999997615814,0,0,0
4,2,1,20657734,48.765972504092,2.4649385780351,0,0,0,170.97956848145,3.9227571487427,9.6868629455566,0,0,0,123.79347229004,0,0,0,1,9,0.89999997615814,0,0,0
4,2,1,20707500,48.765969264201,2.4649377887032,0,0,0,170.63270568848,3.9552748203278,10.202224731445,0,0,0,127.79669952393,0,0,0,1,9,0.89999997615814,0,0,0
4,2,1,20756982,48.765966034932,2.4649369716425,0,0,0,170.2878112793,3.9928262233734,10.75059223175,0,0,0,131.67584228516,0,0,0,1,9,0.89999997615814,0,0,0
4,2,1,20807328,48.765962742982,2.464936107724,0,0,0,169.93690490723,4.0369300842285,11.343626022339,0,0,0,135.45112609863,0,0,0,1,9,0.89999997615814,0,0,0
4,2,1,20857211,48.765959477197,2.4649352195417,0,0,0,169.58853149414,4.0873064994812,11.964232444763,0,0,0,139.12101745605,0,0,0,1,9,0.89999997615814,0,0,0
4,2,1,20916563,48.765955596259,2.4649341233799,0,0,0,169.17366027832,4.1569890975952,12.741674423218,0,0,0,143.55366516113,0,0,0,1,9,0.89999997615814,0,0,0
4,2,1,20963286,48.765952538844,2.4649332287638,0,0,0,168.84706115723,4.2199769020081,13.383315086365,0,0,0,146.99789428711,0,0,0,1,9,0.89999997615814,0,0,0
4,2,1,21012954,48.765949285503,2.4649322469808,0,0,0,168.49987792969,4.2951526641846,14.092883110046,0,0,0,150.38493347168,0,0,0,1,9,0.89999997615814,0,0,0
4,2,1,21053151,48.765946648353,2.4649314286552,0,0,0,168.21890258789,4.3626556396484,14.687471389771,0,0,0,152.89744567871,0,0,0,1,9,0.89999997615814,0,0,0
4,2,1,21107199,48.765943103092,2.4649302963571,0,0,0,167.84111022949,4.4636898040771,15.512998580933,0,0,0,156.18771362305,0,0,0,1,9,0.89999997615814,0,0,0
4,2,1,21157452,48.765939806245,2.4649292101277,0,0,0,167.50439453125,4.5692038536072,16.306478500366,0,0,0,159.36923217773,0,0,0,1,9,0.89999997615814,0,0,0
4,2,1,21207416,48.765936532745,2.4649281019441,0,0,0,167.18463134766,4.6851000785828,17.117776870728,0,0,0,162.47186279297,0,0,0,1,9,0.89999997615814,0,0,0
4,2,1,21252220,48.765933599374,2.4649270846184,0,0,0,166.89204406738,4.7980480194092,17.863647460938,0,0,0,164.81121826172,0,0,0,1,9,0.89999997615814,0,0,0
4,2,1,21306989,48.765930005608,2.4649258053982,0,0,0,166.53385925293,4.9498715400696,18.800888061523,0,0,0,167.84956359863,0,0,0,1,9,0.89999997615814,0,0,0
4,2,1,21357509,48.76593244255,2.464923920585,0,0,0,169.51359558105,3.955512046814,8.7336454391479,0,0,0,29.089065551758,0,0,0,1,9,0.89999997615814,0,0,0
4,2,1,21407835,48.765929099637,2.4649229735187,0,0,0,169.18589782715,3.9622685909271,8.7443990707397,0,0,0,42.979793548584,0,0,0,1,9,0.89999997615814,0,0,0
4,2,1,21457057,48.765925834192,2.464922019269,0,0,0,168.86524963379,3.969646692276,8.7629442214966,0,0,0,53.348766326904,0,0,0,1,9,0.89999997615814,0,0,0
4,2,1,21512358,48.765922169639,2.4649209149542,0,0,0,168.5139465332,3.9786372184753,8.7982769012451,0,0,0,62.085861206055,0,0,0,1,9,0.89999997615814,0,0,0
4,2,1,21552745,48.765919496219,2.4649200871063,0,0,0,168.26091003418,3.9865455627441,8.8371419906616,0,0,0,67.88053894043,0,0,0,1,9,0.89999997615814,0,0,0
4,2,1,21607720,48.765915831508,2.4649189222069,0,0,0,167.91842651367,3.9995315074921,8.9125604629517,0,0,0,74.923156738281,0,0,0,1,9,0.89999997615814,0,0,0
4,2,1,21657451,48.76591252037,2.4649178400263,0,0,0,167.62208557129,4.0146012306213,9.0067195892334,0,0,0,81.268951416016,0,0,0,1,9,0.89999997615814,0,0,0
4,2,1,21712892,48.765908833398,2.4649166035765,0,0,0,167.29772949219,4.0348119735718,9.1446380615234,0,0,0,87.204467773438,0,0,0,1,9,0.89999997615814,0,0,0
4,2,1,21763373,48.765905480357,2.4649154502659,0,0,0,167.0075378418,4.0580425262451,9.3041076660156,0,0,0,92.703002929688,0,0,0,1,9,0.89999997615814,0,0,0
4,2,1,21803069,48.765902846393,2.4649145254555,0,0,0,166.78007507324,4.0795612335205,9.4537944793701,0,0,0,96.637725830078,0,0,0,1,9,0.89999997615814,0,0,0
4,2,1,21858131,48.765903419736,2.4649057874908,0,0,0,162.48957824707,3.8803417682648,7.6577768325806,0,0,0,18.493473052979,0,0,0,1,9,0.89999997615814,0,0,0
4,2,1,21902964,48.765900484243,2.4649043794494,0,0,0,162.24209594727,3.8856599330902,7.6631708145142,0,0,0,33.065029144287,0,0,0,1,9,0.89999997615814,0,0,0
4,2,1,21962510,48.76589657596,2.4649024719048,0,0,0,161.92970275879,3.8954892158508,7.6781678199768,0,0,0,48.104206085205,0,0,0,1,9,0.89999997615814,0,0,0
4,2,1,22012254,48.765893316301,2.4649008538436,0,0,0,161.66954040527,3.9060497283936,7.7027158737183,0,0,0,57.391593933105,0,0,0,1,9,0.89999997615814,0,0,0
4,2,1,22063004,48.765889995741,2.4648991800943,0,0,0,161.40411376953,3.9204409122467,7.7445168495178,0,0,0,65.385353088379,0,0,0,1,9,0.89999997615814,0,0,0
4,2,1,22102415,48.765887420638,2.4648978642995,0,0,0,161.19799804688,3.9348971843719,7.7917561531067,0,0,0,70.806175231934,0,0,0,1,9,0.89999997615814,0,0,0
4,2,1,22152740,48.765884137012,2.4648961637012,0,0,0,160.93479919434,3.9589388370514,7.8745403289795,0,0,0,77.422637939453,0,0,0,1,9,0.89999997615814,0,0,0
4,2,1,22208006,48.76588052622,2.4648942644799,0,0,0,160.64575195312,3.9933054447174,7.9988131523132,0,0,0,83.564979553223,0,0,0,1,9,0.89999997615814,0,0,0
4,2,1,22257092,48.765877310831,2.4648925468471,0,0,0,160.39392089844,4.0332651138306,8.1429023742676,0,0,0,89.220329284668,0,0,0,1,9,0.89999997615814,0,0,0
4,2,1,22312249,48.765873689252,2.4648905846384,0,0,0,160.12530517578,4.089156627655,8.3458642959595,0,0,0,94.565841674805,0,0,0,1,9,0.89999997615814,0,0,0
4,2,1,22363002,48.765870357682,2.4648887536659,0,0,0,159.87812805176,4.1530599594116,8.5733547210693,0,0,0,99.59122467041,0,0,0,1,9,0.89999997615814,0,0,0
4,2,1,22407218,48.765867459427,2.4648871411106,0,0,0,159.66146850586,4.2184777259827,8.8038778305054,0,0,0,103.24716186523,0,0,0,1,9,0.89999997615814,0,0,0
4,2,1,22463726,48.765863761557,2.4648850553724,0,0,0,159.38458251953,4.31858253479,9.1438264846802,0,0,0,108.94770050049,0,0,0,1,9,0.89999997615814,0,0,0
4,2,1,22503208,48.765861181759,2.4648835823598,0,0,0,159.19111633301,4.3986968994141,9.4111213684082,0,0,0,112.26713562012,0,0,0,1,9,0.89999997615814,0,0,0
4,2,1,22562289,48.765857327432,2.464881353892,0,0,0,158.90162658691,4.5354795455933,9.8564729690552,0,0,0,116.58840179443,0,0,0,1,9,0.89999997615814,0,0,0
4,2,1,22603106,48.765854639544,2.4648797797232,0,0,0,158.70162963867,4.6440534591675,10.199106216431,0,0,0,119.70472717285,0,0,0,1,9,0.89999997615814,0,0,0
4,2,1,22658073,48.765851025623,2.4648776374225,0,0,0,158.43228149414,4.8072576522827,10.699754714966,0,0,0,123.74109649658,0,0,0,1,9,0.89999997615814,0,0,0
4,2,1,22707706,48.765847768213,2.4648756806997,0,0,0,158.18908691406,4.9721350669861,11.189171791077,0,0,0,127.61792755127,0,0,0,1,9,0.89999997615814,0,0,0
4,2,1,22756865,48.765844547358,2.4648737220458,0,0,0,157.94821166992,5.1517119407654,11.707324028015,0,0,0,131.3776550293,0,0,0,1,9,0.89999997615814,0,0,0
4,2,1,22807327,48.765841246799,2.4648716902824,0,0,0,157.70094299316,5.352912902832,12.272337913513,0,0,0,135.0401763916,0,0,0,1,9,0.89999997615814,0,0,0
4,2,1,22863358,48.765842793996,2.4648612650801,0,0,0,155.96406555176,4.1786398887634,7.8523678779602,0,0,0,18.664258956909,0,0,0,1,9,0.89999997615814,0,0,0
4,2,1,22913629,48.76583953753,2.4648590586689,0,0,0,155.71774291992,4.1863303184509,7.8605828285217,0,0,0,36.383991241455,0,0,0,1,9,0.89999997615814,0,0,0
4,2,1,22952212,48.765837041194,2.4648573501039,0,0,0,155.52919006348,4.1936120986938,7.8706431388855,0,0,0,45.349460601807,0,0,0,1,9,0.89999997615814,0,0,0
4,2,1,23007753,48.765833423846,2.4648548481683,0,0,0,155.25827026367,4.2079286575317,7.895592212677,0,0,0,55.133701324463,0,0,0,1,9,0.89999997615814,0,0,0
4,2,1,23057665,48.765830179928,2.4648525773826,0,0,0,155.01321411133,4.2274341583252,7.9334979057312,0,0,0,63.362411499023,0,0,0,1,9,0.89999997615814,0,0,0
4,2,1,23107949,48.765826908277,2.4648502613501,0,0,0,154.76631164551,4.2551851272583,7.9912023544312,0,0,0,70.643035888672,0,0,0,1,9,0.89999997615814,0,0,0
4,2,1,23156634,48.765823740248,2.4648479937529,0,0,0,154.52726745605,4.2920031547546,8.070011138916,0,0,0,77.224502563477,0,0,0,1,9,0.89999997615814,0,0,0
4,2,1,23213380,48.765820055683,2.4648453252464,0,0,0,154.24864196777,4.3499774932861,8.1952018737793,0,0,0,84.698211669922,0,0,0,1,9,0.89999997615814,0,0,0
4,2,1,23263392,48.76581680953,2.4648429468782,0,0,0,154.00308227539,4.4161124229431,8.3391914367676,0,0,0,90.27173614502,0,0,0,1,9,0.89999997615814,0,0,0
4,2,1,23302798,48.765814255667,2.4648410575736,0,0,0,153.80960083008,4.4795241355896,8.4768218994141,0,0,0,94.251251220703,0,0,0,1,9,0.89999997615814,0,0,0
4,2,1,23357925,48.765810693957,2.464838395769,0,0,0,153.53051757812,4.5863766670227,8.7067604064941,0,0,0,99.3427734375,0,0,0,1,9,0.89999997615814,0,0,0
4,2,1,23412028,48.765807207281,2.4648357564115,0,0,0,153.22212219238,4.7137427330017,8.9763813018799,0,0,0,104.23020935059,0,0,0,1,9,0.89999997615814,0,0,0
4,2,1,23456760,48.765804331568,2.4648335530287,0,0,0,152.96714782715,4.8365139961243,9.2324752807617,0,0,0,107.78495788574,0,0,0,1,9,0.89999997615814,0,0,0
4,2,1,23511896,48.765800796046,2.4648308103522,0,0,0,152.65287780762,5.0111589431763,9.5896015167236,0,0,0,112.31387329102,0,0,0,1,9,0.89999997615814,0,0,0
4,2,1,23562309,48.76579757183,2.4648282778369,0,0,0,152.40254211426,5.1938786506653,9.9556665420532,0,0,0,116.58089447021,0,0,0,1,9,0.89999997615814,0,0,0
4,2,1,23613909,48.765794279266,2.4648256637663,0,0,0,152.14712524414,5.4035067558289,10.368648529053,0,0,0,120.70378112793,0,0,0,1,9,0.89999997615814,0,0,0
4,2,1,23662517,48.765791184746,2.464823180839,0,0,0,151.90650939941,5.6223015785217,10.792284965515,0,0,0,124.671875,0,0,0,1,9,0.89999997615814,0,0,0
4,2,1,23712406,48.765788015851,2.4648206121119,0,0,0,151.65956115723,5.868034362793,11.260757446289,0,0,0,128.52517700195,0,0,0,1,9,0.89999997615814,0,0,0
4,2,1,23762221,48.765784840642,2.4648180115191,0,0,0,151.41297912598,6.1363739967346,11.76442527771,0,0,0,132.26583862305,0,0,0,1,9,0.89999997615814,0,0,0
4,2,1,23812970,48.765781564871,2.4648153008049,0,0,0,151.16177368164,6.4360599517822,12.318600654602,0,0,0,135.90895080566,0,0,0,1,9,0.89999997615814,0,0,0
4,2,1,23853107,48.7657847749,2.4648056679919,0,0,0,150.81896972656,4.6114130020142,7.9462485313416,0,0,0,9.9664783477783,0,0,0,1,9,0.89999997615814,0,0,0
4,2,1,23906599,48.765781325863,2.4648027425947,0,0,0,150.55508422852,4.6192927360535,7.9538736343384,0,0,0,32.867286682129,0,0,0,1,9,0.89999997615814,0,0,0
4,2,1,23957692,48.76577803367,2.4647999205806,0,0,0,150.30349731445,4.6298007965088,7.9662985801697,0,0,0,45.358158111572,0,0,0,1,9,0.89999997615814,0,0,0
4,2,1,24002783,48.765775133223,2.4647974108536,0,0,0,150.08209228516,4.6429657936096,7.9848265647888,0,0,0,52.918975830078,0,0,0,1,9,0.89999997615814,0,0,0
4,2,1,24053578,48.765771871047,2.4647945606271,0,0,0,149.83192443848,4.6658329963684,8.0188503265381,0,0,0,61.458122253418,0,0,0,1,9,0.89999997615814,0,0,0
4,2,1,24107012,48.765768444038,2.4647915353845,0,0,0,149.56809997559,4.7011165618896,8.0738954544067,0,0,0,68.978416442871,0,0,0,1,9,0.89999997615814,0,0,0
4,2,1,24167106,48.765764592709,2.4647880967754,0,0,0,149.27003479004,4.759593963623,8.1662559509277,0,0,0,77.293434143066,0,0,0,1,9,0.89999997615814,0,0,0
4,2,1,24212416,48.7657616922,2.4647854798329,0,0,0,149.04591369629,4.8195052146912,8.2611455917358,0,0,0,83.323455810547,0,0,0,1,9,0.89999997615814,0,0,0
4,2,1,24252999,48.765759099155,2.4647831211255,0,0,0,148.84747314453,4.8856182098389,8.3663902282715,0,0,0,87.628005981445,0,0,0,1,9,0.89999997615814,0,0,0
4,2,1,24307445,48.765755636286,2.4647799420856,0,0,0,148.57632446289,4.9954357147217,8.5402088165283,0,0,0,93.069290161133,0,0,0,1,9,0.89999997615814,0,0,0
4,2,1,24362331,48.765752157203,2.4647767138577,0,0,0,148.30351257324,5.1328496932983,8.7557725906372,0,0,0,98.212242126465,0,0,0,1,9,0.89999997615814,0,0,0
4,2,1,24402950,48.76574959082,2.4647743101816,0,0,0,148.09803771973,5.2529349327087,8.9424200057983,0,0,0,101.90048217773,0,0,0,1,9,0.89999997615814,0,0,0
4,2,1,24452875,48.765746444425,2.4647713364584,0,0,0,147.84292602539,5.4232087135315,9.2043333053589,0,0,0,106.59230804443,0,0,0,1,9,0.89999997615814,0,0,0
4,2,1,24507454,48.765743014632,2.4647680616587,0,0,0,147.56918334961,5.6381316184998,9.5317459106445,0,0,0,111.11234283447,0,0,0,1,9,0.89999997615814,0,0,0
4,2,1,24552987,48.765740161372,2.4647653103713,0,0,0,147.34143066406,5.8416976928711,9.8381252288818,0,0,0,115.39329528809,0,0,0,1,9,0.89999997615814,0,0,0
4,2,1,24611922,48.765736478788,2.4647617245067,0,0,0,147.04525756836,6.1363677978516,10.278051376343,0,0,0,119.61045837402,0,0,0,1,9,0.89999997615814,0,0,0
4,2,1,24657152,48.765733660856,2.4647589531334,0,0,0,146.82046508789,6.3867783546448,10.648121833801,0,0,0,122.68164825439,0,0,0,1,9,0.89999997615814,0,0,0
4,2,1,24716506,48.765729973901,2.4647552910302,0,0,0,146.52825927734,6.7466201782227,11.174559593201,0,0,0,126.65145111084,0,0,0,1,9,0.89999997615814,0,0,0
4,2,1,24752971,48.765727715026,2.4647530268017,0,0,0,146.35189819336,6.9852051734924,11.520159721375,0,0,0,129.49732971191,0,0,0,1,9,0.89999997615814,0,0,0
4,2,1,24812253,48.765724052368,2.4647493238714,0,0,0,146.06234741211,7.3994193077087,12.11576461792,0,0,0,133.26110839844,0,0,0,1,9,0.89999997615814,0,0,0
4,2,1,24853108,48.765728285761,2.4647384028932,0,0,0,145.4737701416,5.0594639778137,7.9084005355835,0,0,0,9.9652252197266,0,0,0,1,9,0.89999997615814,0,0,0
4,2,1,24913439,48.765724597435,2.4647345473185,0,0,0,145.16860961914,5.0691690444946,7.9171166419983,0,0,0,36.301044464111,0,0,0,1,9,0.89999997615814,0,0,0
4,2,1,24962348,48.765721617566,2.4647313995303,0,0,0,144.90921020508,5.0808515548706,7.9292144775391,0,0,0,47.930202484131,0,0,0,1,9,0.89999997615814,0,0,0
4,2,1,25012147,48.765718593284,2.4647281733135,0,0,0,144.63258361816,5.0998406410217,7.9506878852844,0,0,0,57.290939331055,0,0,0,1,9,0.89999997615814,0,0,0
4,2,1,25061538,48.765715604157,2.4647249513839,0,0,0,144.35055541992,5.1292781829834,7.9852824211121,0,0,0,65.336799621582,0,0,0,1,9,0.89999997615814,0,0,0
4,2,1,25102965,48.765713105007,2.4647222320695,0,0,0,144.11143493652,5.1641392707825,8.0270090103149,0,0,0,70.834976196289,0,0,0,1,9,0.89999997615814,0,0,0
4,2,1,25163038,48.76570949472,2.4647182601416,0,0,0,143.75885009766,5.2361688613892,8.1129713058472,0,0,0,79.062728881836,0,0,0,1,9,0.89999997615814,0,0,0
4,2,1,25213133,48.765706496512,2.4647149222651,0,0,0,143.46220397949,5.3185415267944,8.2109909057617,0,0,0,85.100776672363,0,0,0,1,9,0.89999997615814,0,0,0
4,2,1,25252520,48.765704147177,2.464712281515,0,0,0,143.22813415527,5.3995800018311,8.3069190979004,0,0,0,89.382469177246,0,0,0,1,9,0.89999997615814,0,0,0
4,2,1,25302772,48.765701160191,2.464708891204,0,0,0,142.93228149414,5.5261783599854,8.4555826187134,0,0,0,94.764099121094,0,0,0,1,9,0.89999997615814,0,0,0
4,2,1,25357283,48.765697933073,2.4647051874466,0,0,0,142.60871887207,5.694700717926,8.651927947998,0,0,0,99.89981842041,0,0,0,1,9,0.89999997615814,0,0,0
4,2,1,25411787,48.765694720342,2.4647014564706,0,0,0,142.27745056152,5.8978500366211,8.8864374160767,0,0,0,104.79566192627,0,0,0,1,9,0.89999997615814,0,0,0
4,2,1,25463313,48.76569169663,2.4646979029425,0,0,0,141.94644165039,6.12309217453,9.1440315246582,0,0,0,109.47274780273,0,0,0,1,9,0.89999997615814,0,0,0
4,2,1,25503491,48.765689400486,2.4646951754499,0,0,0,141.67118835449,6.3167910575867,9.3638505935669,0,0,0,112.89142608643,0,0,0,1,9,0.89999997615814,0,0,0
4,2,1,25562383,48.765686050977,2.4646911466954,0,0,0,141.23617553711,6.6352891921997,9.7221069335938,0,0,0,117.38704681396,0,0,0,1,9,0.89999997615814,0,0,0
4,2,1,25602306,48.765683792181,2.4646883932054,0,0,0,140.93162536621,6.8750329017639,9.9890270233154,0,0,0,120.62030029297,0,0,0,1,9,0.89999997615814,0,0,0
4,2,1,25656875,48.765680720465,2.4646846002496,0,0,0,140.5113067627,7.2332324981689,10.384103775024,0,0,0,124.81935119629,0,0,0,1,9,0.89999997615814,0,0,0
4,2,1,25713582,48.765677547987,2.4646806226677,0,0,0,140.06864929199,7.6421890258789,10.83021736145,0,0,0,128.90936279297,0,0,0,1,9,0.89999997615814,0,0,0
4,2,1,25756766,48.765675145742,2.4646775688085,0,0,0,139.73152160645,7.9782447814941,11.193141937256,0,0,0,131.89990234375,0,0,0,1,9,0.89999997615814,0,0,0
4,2,1,25816554,48.765671868603,2.4646733416693,0,0,0,139.26007080078,8.4740180969238,11.722616195679,0,0,0,136.63305664062,0,0,0,1,9,0.89999997615814,0,0,0
4,2,1,25853343,48.76566987635,2.4646707371715,0,0,0,138.97068786621,8.7961282730103,12.063247680664,0,0,0,139.40347290039,0,0,0,1,9,0.89999997615814,0,0,0
4,2,1,25912735,48.765666680121,2.4646665024461,0,0,0,138.50785827637,9.3458662033081,12.638721466064,0,0,0,143.88041687012,0,0,0,1,9,0.89999997615814,0,0,0
4,2,1,25962556,48.765664016322,2.4646629203793,0,0,0,138.12275695801,9.8348398208618,13.144894599915,0,0,0,147.3801574707,0,0,0,1,9,0.89999997615814,0,0,0
4,2,1,26012446,48.765661383406,2.464659331693,0,0,0,137.73820495605,10.345784187317,13.668323516846,0,0,0,150.79804992676,0,0,0,1,9,0.89999997615814,0,0,0
4,2,1,26056832,48.765659064937,2.4646561320321,0,0,0,137.3973236084,10.818025588989,14.147510528564,0,0,0,153.36624145508,0,0,0,1,9,0.89999997615814,0,0,0
4,2,1,26102424,48.765656707343,2.4646528389126,0,0,0,137.04730224609,11.319821357727,14.65184879303,0,0,0,155.90156555176,0,0,0,1,9,0.89999997615814,0,0,0
4,2,1,26157283,48.765653903123,2.4646488679825,0,0,0,136.62414550781,11.945212364197,15.273460388184,0,0,0,159.1753692627,0,0,0,1,9,0.89999997615814,0,0,0
4,2,1,26207474,48.765651363981,2.464645220321,0,0,0,136.23248291016,12.538269042969,15.855986595154,0,0,0,162.35220336914,0,0,0,1,9,0.89999997615814,0,0,0
4,2,1,26257540,48.765648865683,2.464641582063,0,0,0,135.84297180176,13.14667224884,16.446817398071,0,0,0,165.46606445312,0,0,0,1,9,0.89999997615814,0,0,0
4,2,1,26307594,48.765656045445,2.4646325693752,0,0,0,140.18026733398,6.6832647323608,8.7124376296997,0,0,0,9.9701900482178,0,0,0,1,9,0.89999997615814,0,0,0
4,2,1,26357755,48.7656534045,2.4646292215974,0,0,0,139.79403686523,6.6899785995483,8.7181520462036,0,0,0,33.453506469727,0,0,0,1,9,0.89999997615814,0,0,0
4,2,1,26407716,48.765650803864,2.4646258795686,0,0,0,139.40983581543,6.6994071006775,8.7267303466797,0,0,0,46.240215301514,0,0,0,1,9,0.89999997615814,0,0,0
4,2,1,26461725,48.76564803196,2.4646222672416,0,0,0,138.99450683594,6.7155542373657,8.7421817779541,0,0,0,56.277156829834,0,0,0,1,9,0.89999997615814,0,0,0
4,2,1,26512289,48.765645468264,2.4646188782801,0,0,0,138.60566711426,6.7395610809326,8.7654504776001,0,0,0,64.712356567383,0,0,0,1,9,0.89999997615814,0,0,0
4,2,1,26562739,48.765642945187,2.4646154970635,0,0,0,138.21769714355,6.7747135162354,8.7994604110718,0,0,0,72.166244506836,0,0,0,1,9,0.89999997615814,0,0,0
4,2,1,26607446,48.765640723293,2.4646124817059,0,0,0,137.87390136719,6.8171954154968,8.8402919769287,0,0,0,77.395446777344,0,0,0,1,9,0.89999997615814,0,0,0
4,2,1,26662177,48.765638051197,2.4646088059216,0,0,0,137.45301818848,6.8863229751587,8.9057741165161,0,0,0,83.790237426758,0,0,0,1,9,0.89999997615814,0,0,0
4,2,1,26707108,48.765635893684,2.4646057968586,0,0,0,137.10751342773,6.9592728614807,8.9737510681152,0,0,0,89.596290588379,0,0,0,1,9,0.89999997615814,0,0,0
4,2,1,26763352,48.765633238034,2.46460204375,0,0,0,136.67498779297,7.0720987319946,9.0773868560791,0,0,0,95.194549560547,0,0,0,1,9,0.89999997615814,0,0,0
4,2,1,26807169,48.765631194747,2.4645991170398,0,0,0,136.33804321289,7.17866563797,9.1737775802612,0,0,0,99.20622253418,0,0,0,1,9,0.89999997615814,0,0,0
4,2,1,26852792,48.765637131993,2.4645866582837,0,0,0,133.62104797363,5.9782824516296,7.4652862548828,0,0,0,9.9513721466064,0,0,0,1,9,0.89999997615814,0,0,0
4,2,1,26906875,48.765634741673,2.4645828464766,0,0,0,133.26518249512,5.9843292236328,7.4700064659119,0,0,0,33.30207824707,0,0,0,1,9,0.89999997615814,0,0,0
4,2,1,26956515,48.765632561674,2.4645793279131,0,0,0,132.93855285645,5.9935355186462,7.4769320487976,0,0,0,45.932197570801,0,0,0,1,9,0.89999997615814,0,0,0
4,2,1,27013462,48.765630076896,2.4645752687094,0,0,0,132.56886291504,6.0121273994446,7.4903235435486,0,0,0,55.894142150879,0,0,0,1,9,0.89999997615814,0,0,0
4,2,1,27062661,48.76562796461,2.4645717763118,0,0,0,132.2618560791,6.0392127037048,7.5093140602112,0,0,0,64.17684173584,0,0,0,1,9,0.89999997615814,0,0,0
4,2,1,27107397,48.765626136794,2.4645687237058,0,0,0,131.98927307129,6.0730075836182,7.5324678421021,0,0,0,69.842132568359,0,0,0,1,9,0.89999997615814,0,0,0
4,2,1,27152397,48.765624315944,2.4645656530022,0,0,0,131.7278137207,6.1197552680969,7.5640668869019,0,0,0,76.538215637207,0,0,0,1,9,0.89999997615814,0,0,0
4,2,1,27213441,48.765621860595,2.4645614676633,0,0,0,131.37315368652,6.2060561180115,7.6213459968567,0,0,0,84.214469909668,0,0,0,1,9,0.89999997615814,0,0,0
4,2,1,27251681,48.765620331156,2.4645588342378,0,0,0,131.15365600586,6.2757215499878,7.666955947876,0,0,0,88.513282775879,0,0,0,1,9,0.89999997615814,0,0,0
4,2,1,27306511,48.765618165001,2.4645550700668,0,0,0,130.84550476074,6.3979864120483,7.7461452484131,0,0,0,93.965286254883,0,0,0,1,9,0.89999997615814,0,0,0
4,2,1,27357780,48.765616190125,2.4645516015804,0,0,0,130.55737304688,6.5363893508911,7.8349843025208,0,0,0,99.085968017578,0,0,0,1,9,0.89999997615814,0,0,0
4,2,1,27407745,48.765614276615,2.4645482068765,0,0,0,130.27658081055,6.6969699859619,7.9373373985291,0,0,0,103.94376373291,0,0,0,1,9,0.89999997615814,0,0,0
4,2,1,27462075,48.765612252071,2.46454457818,0,0,0,129.97709655762,6.8968644142151,8.0640029907227,0,0,0,108.61135101318,0,0,0,1,9,0.89999997615814,0,0,0
4,2,1,27503378,48.765610721582,2.4645418086016,0,0,0,129.75321960449,7.070330619812,8.1736488342285,0,0,0,112.9815826416,0,0,0,1,9,0.89999997615814,0,0,0
4,2,1,27561831,48.765608567321,2.4645378742755,0,0,0,129.43641662598,7.3461809158325,8.347354888916,0,0,0,117.31322479248,0,0,0,1,9,0.89999997615814,0,0,0
4,2,1,27612109,48.765606726064,2.4645344755832,0,0,0,129.16390991211,7.613507270813,8.5155181884766,0,0,0,121.43328857422,0,0,0,1,9,0.89999997615814,0,0,0
4,2,1,27662466,48.765604892637,2.4645310583215,0,0,0,128.89097595215,7.9086322784424,8.7010736465454,0,0,0,125.41864013672,0,0,0,1,9,0.89999997615814,0,0,0
4,2,1,27712501,48.765603081619,2.464527649857,0,0,0,128.61978149414,8.2287845611572,8.9023818969727,0,0,0,129.27909851074,0,0,0,1,9,0.89999997615814,0,0,0
4,2,1,27758285,48.765601433948,2.4645245195022,0,0,0,128.37162780762,8.5451078414917,9.1013984680176,0,0,0,133.00035095215,0,0,0,1,9,0.89999997615814,0,0,0
4,2,1,27807188,48.765599683855,2.4645211641167,0,0,0,128.11128234863,8.9069013595581,9.3291139602661,0,0,0,136.63427734375,0,0,0,1,9,0.89999997615814,0,0,0
4,2,1,27858253,48.765597867151,2.4645176476074,0,0,0,127.85136413574,9.3111705780029,9.5839109420776,0,0,0,140.97253417969,0,0,0,1,9,0.89999997615814,0,0,0
4,2,1,27912044,48.765604230033,2.4645050880788,0,0,0,125.53161621094,6.1195707321167,6.8907513618469,0,0,0,28.952575683594,0,0,0,1,9,0.89999997615814,0,0,0
4,2,1,27952208,48.765602883677,2.4645022290697,0,0,0,125.32718658447,6.1262021064758,6.8950238227844,0,0,0,39.698997497559,0,0,0,1,9,0.89999997615814,0,0,0
4,2,1,28002411,48.765601210378,2.4644986451766,0,0,0,125.07164764404,6.1393070220947,6.902578830719,0,0,0,50.540637969971,0,0,0,1,9,0.89999997615814,0,0,0
4,2,1,28062725,48.765599213797,2.4644943248919,0,0,0,124.76465606689,6.1655688285828,6.9159111976624,0,0,0,59.571941375732,0,0,0,1,9,0.89999997615814,0,0,0
4,2,1,28104713,48.765597832957,2.4644913077239,0,0,0,124.55093383789,6.1938419342041,6.9295196533203,0,0,0,65.494422912598,0,0,0,1,9,0.89999997615814,0,0,0
4,2,1,28162961,48.765595929988,2.4644871090127,0,0,0,124.26800537109,6.2508363723755,6.9561405181885,0,0,0,74.168907165527,0,0,0,1,9,0.89999997615814,0,0,0
4,2,1,28207685,48.765594477553,2.4644838761676,0,0,0,124.0658493042,6.3102116584778,6.9827303886414,0,0,0,78.981239318848,0,0,0,1,9,0.89999997615814,0,0,0
4,2,1,28256931,48.765592887234,2.46448030727,0,0,0,123.83818054199,6.3949360847473,7.0202422142029,0,0,0,84.897987365723,0,0,0,1,9,0.89999997615814,0,0,0
4,2,1,28312172,48.765591114526,2.4644762925337,0,0,0,123.57412719727,6.5158972740173,7.0727767944336,0,0,0,90.491218566895,0,0,0,1,9,0.89999997615814,0,0,0
4,2,1,28356608,48.765589697402,2.4644730541686,0,0,0,123.36083984375,6.635000705719,7.1239104270935,0,0,0,94.494270324707,0,0,0,1,9,0.89999997615814,0,0,0
4,2,1,28401858,48.765588262823,2.4644697480021,0,0,0,123.14363861084,6.7784276008606,7.1854729652405,0,0,0,99.476264953613,0,0,0,1,9,0.89999997615814,0,0,0
4,2,1,28457170,48.765586520221,2.464465695814,0,0,0,122.87814331055,6.98410987854,7.2730488777161,0,0,0,104.29274749756,0,0,0,1,9,0.89999997615814,0,0,0
4,2,1,28513858,48.765584950648,2.4644620084775,0,0,0,122.61966705322,7.2022867202759,7.3663058280945,0,0,0,109.91309356689,0,0,0,1,9,0.89999997615814,0,0,0
4,2,1,28563219,48.765583631576,2.4644588810688,0,0,0,122.4026184082,7.4102916717529,7.4550843238831,0,0,0,114.22440338135,0,0,0,1,9,0.89999997615814,0,0,0
4,2,1,28603102,48.765582571427,2.4644563487392,0,0,0,122.22912597656,7.5943655967712,7.5336441993713,0,0,0,117.3681640625,0,0,0,1,9,0.89999997615814,0,0,0
4,2,1,28657182,48.76558116217,2.4644529559084,0,0,0,121.99221801758,7.8631348609924,7.6486029624939,0,0,0,121.44047546387,0,0,0,1,9,0.89999997615814,0,0,0
4,2,1,28711755,48.765579771492,2.4644495760285,0,0,0,121.73661804199,8.1558408737183,7.7741932868958,0,0,0,125.40390014648,0,0,0,1,9,0.89999997615814,0,0,0
4,2,1,28757767,48.765578614282,2.4644467376697,0,0,0,121.52038574219,8.4203929901123,7.8879089355469,0,0,0,128.3260345459,0,0,0,1,9,0.89999997615814,0,0,0
4,2,1,28808029,48.765577363381,2.464443642483,0,0,0,121.30713653564,8.7285594940186,8.0210857391357,0,0,0,132.03302001953,0,0,0,1,9,0.89999997615814,0,0,0
4,2,1,28858006,48.765583881255,2.4644326980147,0,0,0,119.96869659424,6.0288782119751,6.1981358528137,0,0,0,18.345439910889,0,0,0,1,9,0.89999997615814,0,0,0
4,2,1,28913029,48.765582575589,2.464429262601,0,0,0,119.7748260498,6.0358576774597,6.2028303146362,0,0,0,35.995487213135,0,0,0,1,9,0.89999997615814,0,0,0
4,2,1,28957175,48.765581526243,2.4644264817807,0,0,0,119.62298583984,6.0448789596558,6.2081074714661,0,0,0,47.347831726074,0,0,0,1,9,0.89999997615814,0,0,0
4,2,1,29007085,48.765580340432,2.4644233188749,0,0,0,119.45104217529,6.0602135658264,6.2153925895691,0,0,0,56.51683807373,0,0,0,1,9,0.89999997615814,0,0,0
4,2,1,29062201,48.765579024131,2.4644197823655,0,0,0,119.26138305664,6.0868401527405,6.2261996269226,0,0,0,64.435699462891,0,0,0,1,9,0.89999997615814,0,0,0
4,2,1,29102692,48.765578067557,2.4644171945624,0,0,0,119.11283111572,6.1147074699402,6.2367005348206,0,0,0,69.80167388916,0,0,0,1,9,0.89999997615814,0,0,0
4,2,1,29156590,48.765576801434,2.4644137448478,0,0,0,118.91390991211,6.1650471687317,6.2546739578247,0,0,0,76.373825073242,0,0,0,1,9,0.89999997615814,0,0,0
4,2,1,29203386,48.765575711901,2.4644107529463,0,0,0,118.73889923096,6.2232341766357,6.2749018669128,0,0,0,82.378723144531,0,0,0,1,9,0.89999997615814,0,0,0
4,2,1,29263207,48.765574319559,2.4644068975309,0,0,0,118.51043701172,6.3204765319824,6.3075170516968,0,0,0,89.335708618164,0,0,0,1,9,0.89999997615814,0,0,0
4,2,1,29307788,48.765573287377,2.4644040164709,0,0,0,118.34701538086,6.4108743667603,6.3367795944214,0,0,0,93.304794311523,0,0,0,1,9,0.89999997615814,0,0,0
4,2,1,29357032,48.765572153492,2.4644008286218,0,0,0,118.17537689209,6.5310788154602,6.3756008148193,0,0,0,98.275276184082,0,0,0,1,9,0.89999997615814,0,0,0
4,2,1,29413397,48.76557085879,2.4643971611426,0,0,0,117.98091125488,6.6959490776062,6.4280457496643,0,0,0,103.04043579102,0,0,0,1,9,0.89999997615814,0,0,0
4,2,1,29456810,48.765569863343,2.4643943208833,0,0,0,117.83113861084,6.8440756797791,6.4749517440796,0,0,0,106.48011016846,0,0,0,1,9,0.89999997615814,0,0,0
4,2,1,29512881,48.765568584572,2.464390645631,0,0,0,117.6376953125,7.0628528594971,6.5443043708801,0,0,0,110.89183807373,0,0,0,1,9,0.89999997615814,0,0,0
4,2,1,29557593,48.765567568192,2.4643877030061,0,0,0,117.48343658447,7.2599306106567,6.6068420410156,0,0,0,114.1011505127,0,0,0,1,9,0.89999997615814,0,0,0
4,2,1,29603648,48.76556652505,2.464384662789,0,0,0,117.32454681396,7.4838905334473,6.6781883239746,0,0,0,117.22876739502,0,0,0,1,9,0.89999997615814,0,0,0
4,2,1,29653440,48.765565399492,2.4643813584301,0,0,0,117.1527633667,7.7508864402771,6.7641792297363,0,0,0,121.22241973877,0,0,0,1,9,0.89999997615814,0,0,0
4,2,1,29712326,48.76556407215,2.4643774307518,0,0,0,116.94960784912,8.098518371582,6.8767085075378,0,0,0,125.12734985352,0,0,0,1,9,0.89999997615814,0,0,0
4,2,1,29762930,48.765562932236,2.4643740296274,0,0,0,116.77502441406,8.4260749816895,6.9840745925903,0,0,0,128.87982177734,0,0,0,1,9,0.89999997615814,0,0,0
4,2,1,29812365,48.765561821352,2.4643706901174,0,0,0,116.60447692871,8.7706604003906,7.0981507301331,0,0,0,132.52137756348,0,0,0,1,9,0.89999997615814,0,0,0
4,2,1,29851820,48.765567983988,2.464361651411,0,0,0,115.43012237549,5.9646496772766,5.6407103538513,0,0,0,9.967643737793,0,0,0,1,9,0.89999997615814,0,0,0
4,2,1,29902760,48.765566876302,2.4643581170546,0,0,0,115.25437927246,5.9713206291199,5.6454210281372,0,0,0,32.448047637939,0,0,0,1,9,0.89999997615814,0,0,0
4,2,1,29952871,48.765565785133,2.4643546076836,0,0,0,115.08149719238,5.9810457229614,5.6508369445801,0,0,0,44.782806396484,0,0,0,1,9,0.89999997615814,0,0,0
4,2,1,30007400,48.765564595267,2.4643507497598,0,0,0,114.89337158203,5.998788356781,5.6581349372864,0,0,0,54.432014465332,0,0,0,1,9,0.89999997615814,0,0,0
4,2,1,30057869,48.765563480341,2.4643471044884,0,0,0,114.71925354004,6.0263137817383,5.6676154136658,0,0,0,62.576797485352,0,0,0,1,9,0.89999997615814,0,0,0
4,2,1,30108022,48.765562368983,2.4643434418197,0,0,0,114.54622650146,6.0675854682922,5.6801691055298,0,0,0,69.774879455566,0,0,0,1,9,0.89999997615814,0,0,0
4,2,1,30153039,48.765561368021,2.4643401184695,0,0,0,114.39092254639,6.1189560890198,5.6942114830017,0,0,0,74.772537231445,0,0,0,1,9,0.89999997615814,0,0,0
4,2,1,30207020,48.765560164405,2.464336090044,0,0,0,114.20468139648,6.2027230262756,5.716233253479,0,0,0,80.91773223877,0,0,0,1,9,0.89999997615814,0,0,0
4,2,1,30262309,48.765558929659,2.4643319210784,0,0,0,114.01393890381,6.3167719841003,5.7449889183044,0,0,0,86.636199951172,0,0,0,1,9,0.89999997615814,0,0,0
4,2,1,30302001,48.765558044816,2.4643289103446,0,0,0,113.87699890137,6.4182062149048,5.7700910568237,0,0,0,90.678283691406,0,0,0,1,9,0.89999997615814,0,0,0
4,2,1,30357299,48.765556813191,2.464324687302,0,0,0,113.68622589111,6.5890474319458,5.8116331100464,0,0,0,95.815986633301,0,0,0,1,9,0.89999997615814,0,0,0
4,2,1,30407738,48.765555695545,2.4643208215036,0,0,0,113.51220703125,6.7764139175415,5.8570523262024,0,0,0,100.66620635986,0,0,0,1,9,0.89999997615814,0,0,0
4,2,1,30458062,48.765554586351,2.4643169530139,0,0,0,113.3385925293,6.9943199157715,5.9097232818604,0,0,0,105.29267120361,0,0,0,1,9,0.89999997615814,0,0,0
4,2,1,30507587,48.765553502334,2.4643131408942,0,0,0,113.16773223877,7.2392745018005,5.969066619873,0,0,0,109.72033691406,0,0,0,1,9,0.89999997615814,0,0,0
4,2,1,30562231,48.765552310675,2.4643089142176,0,0,0,112.99076080322,7.5457062721252,6.0434241294861,0,0,0,113.98439788818,0,0,0,1,9,0.89999997615814,0,0,0
4,2,1,30607855,48.765551315079,2.4643053567156,0,0,0,112.86757659912,7.8322081565857,6.1140236854553,0,0,0,118.02452850342,0,0,0,1,9,0.89999997615814,0,0,0
4,2,1,30661710,48.76555013145,2.4643011001129,0,0,0,112.72610473633,8.2076768875122,6.207160949707,0,0,0,121.95384216309,0,0,0,1,9,0.89999997615814,0,0,0
4,2,1,30706907,48.765549132117,2.4642974837686,0,0,0,112.61808776855,8.5544815063477,6.2948408126831,0,0,0,125.71969604492,0,0,0,1,9,0.89999997615814,0,0,0
4,2,1,30752536,48.765548116493,2.4642937888859,0,0,0,112.50898742676,8.9339475631714,6.3921341896057,0,0,0,129.37725830078,0,0,0,1,9,0.89999997615814,0,0,0
4,2,1,30807126,48.765546901179,2.4642893415934,0,0,0,112.37371063232,9.4226884841919,6.5190968513489,0,0,0,132.96435546875,0,0,0,1,9,0.89999997615814,0,0,0
4,2,1,30862458,48.765545668423,2.4642847996524,0,0,0,112.23303222656,9.9564113616943,6.6603798866272,0,0,0,136.46328735352,0,0,0,1,9,0.89999997615814,0,0,0
4,2,1,30912273,48.765544553431,2.4642806629667,0,0,0,112.0952911377,10.471239089966,6.7993383407593,0,0,0,139.8715057373,0,0,0,1,9,0.89999997615814,0,0,0
4,2,1,30952597,48.765543653905,2.4642773049201,0,0,0,111.98201751709,10.907965660095,6.9188032150269,0,0,0,142.3849029541,0,0,0,1,9,0.89999997615814,0,0,0
4,2,1,31007598,48.765542434055,2.4642727202965,0,0,0,111.82691192627,11.530033111572,7.0914354324341,0,0,0,145.67292785645,0,0,0,1,9,0.89999997615814,0,0,0
4,2,1,31062429,48.765541225932,2.4642681450176,0,0,0,111.68782043457,12.178899765015,7.2744188308716,0,0,0,148.87185668945,0,0,0,1,9,0.89999997615814,0,0,0
4,2,1,31107964,48.765540209215,2.4642642702124,0,0,0,111.58445739746,12.749412536621,7.4379706382751,0,0,0,151.96745300293,0,0,0,1,9,0.89999997615814,0,0,0
4,2,1,31157685,48.765539092617,2.4642599920388,0,0,0,111.47755432129,13.400256156921,7.6268329620361,0,0,0,155.0047454834,0,0,0,1,9,0.89999997615814,0,0,0
4,2,1,31212914,48.765537849336,2.4642552018397,0,0,0,111.36921691895,14.153757095337,7.8483400344849,0,0,0,157.98504638672,0,0,0,1,9,0.89999997615814,0,0,0
4,2,1,31252085,48.765536968409,2.4642517917009,0,0,0,111.29248809814,14.705444335938,8.0125751495361,0,0,0,160.17958068848,0,0,0,1,9,0.89999997615814,0,0,0
4,2,1,31306795,48.765543813114,2.4642477264516,0,0,0,111.16163635254,7.2912769317627,5.4802355766296,0,0,0,18.233734130859,0,0,0,1,9,0.89999997615814,0,0,0
4,2,1,31357134,48.765542682106,2.4642432978496,0,0,0,111.05730438232,7.2995595932007,5.4854817390442,0,0,0,35.553489685059,0,0,0,1,9,0.89999997615814,0,0,0
4,2,1,31412140,48.765541452217,2.4642384551828,0,0,0,110.94564056396,7.3142366409302,5.4920258522034,0,0,0,46.881408691406,0,0,0,1,9,0.89999997615814,0,0,0
4,2,1,31462359,48.765540303541,2.4642339066795,0,0,0,110.84369659424,7.3380990028381,5.5003113746643,0,0,0,55.934906005859,0,0,0,1,9,0.89999997615814,0,0,0
4,2,1,31508142,48.765539254906,2.4642297328487,0,0,0,110.75075531006,7.3724241256714,5.5105571746826,0,0,0,63.693176269531,0,0,0,1,9,0.89999997615814,0,0,0
4,2,1,31553218,48.765538219484,2.4642255922337,0,0,0,110.65924835205,7.4206137657166,5.5226817131042,0,0,0,68.989501953125,0,0,0,1,9,0.89999997615814,0,0,0
4,2,1,31603459,48.765537065147,2.4642209518702,0,0,0,110.55726623535,7.4956870079041,5.5407881736755,0,0,0,75.434837341309,0,0,0,1,9,0.89999997615814,0,0,0
4,2,1,31658265,48.765535797624,2.464215827923,0,0,0,110.4460067749,7.6077036857605,5.5660524368286,0,0,0,81.388626098633,0,0,0,1,9,0.89999997615814,0,0,0
